# © ООО НПП ГА «Луч», 2008 - 2018/1.0.349.0.230602/CНГ УБР-1
~VERSION INFORMATION
VERS     .                               2.0:CWLS LAS VERSION
WRAP     .                                NO: One line per depth step
~WELL INFORMATION
#    MNEM.UNIT                     DATA TYPE:INFORMATION
#========.==================================:=========================================
STRT     .M                           3103.4:FIRST DEPTH IN FILE
STOP     .M                             3700:LAST DEPTH IN FILE
STEP     .M                              0.2:DEPTH INCREMENT
NULL     .                           -999.25:NULL VALUES
DATE     .                        13/10/2045:Дата каротажа
DRVD     .                   :Наименование драйвера прибора
SRVC     .                          :Сервисная компания
COMP     .                   :Оператор месторожения
FLD      .                1:Название месторождения
CLST     .                                1:Номер куста
WELL     .                       1:Номер скважины
OPRT     .                          :ФИО оператора
~CURVE INFORMATION
#    MNEM.UNIT                      API CODE:CURVE DESCRIPTION
#========.==================================:=========================================
DEPT     .M                                 :DEPT
SPEE     .M/H                               :Скорость, м/час - 12.326 м.
IPRS     .МПа                               :Давление внутритрубное - 19.116 м.
RGR      .имп/мин                           :Счет интегрального ГК, имп/мин - 14.601 м.
GR       .мкР/ч                             :Естественная гамма-активность, мкР/ч - 14.601 м.
GR_AVG   .мкР/ч                             :Естественная гамма-активность, мкР/ч - 14.601 м.
RNTN     .имп/мин                           :Счет по каналу малого зонда ННКт, имп./мин. - 11.506 м.
RFTN     .имп/мин                           :Счет по каналу большого зонда ННКт,  имп./мин. - 11.506 м.
NTNL     .у.е.                              :Малый зонд ННКт, у.е. - 11.506 м.
FTNL     .у.е.                              :Большой зонд ННКт, у.е. - 11.506 м.
TRNP     .%                                 :Кажущиеся пористость по ННКТ KNNA+KNNB*A+KNNC*A*A, где A=NTNL/FTNL., % - 11.506 м.
RSDL     .имп/мин                           :Счёт, ближний зонд ГГКП, имп/мин - 10.766 м.
RLDL     .имп/мин                           :Счёт, дальний зонд ГГКП, имп/мин - 10.766 м.
RHOB     .г/см3                             :Плотность, г/см3 - 10.766 м.
RHOB_POST.g/cm3                             :Плотность, г/см3 - 10.766 м.
RAD1     .мм                                :Радиус 1 профилемера, мм - 10.283 м.
RAD2     .мм                                :Радиус 2 профилемера, мм - 10.283 м.
RAD3     .мм                                :Радиус 3 профилемера, мм - 10.283 м.
CALI     .мм                                :Диаметр скважины, мм - 10.283 м.
PHL      .град                              :Разность фаз по зонду И 0.35 И 1.05 Г L=1.4м 0.88МГц, град - 8.154 м.
ROPL     .Омм                               :Кажущееся сопротивление зонда И 0.35 И 1.05 Г, L=1.4м 0.88МГц, Омм - 8.154 м.
PHH      .град                              :Разность фаз по зонду И 0.175 И 0.525 Г,  L=0.7м 3.505МГц, град - 8.504 м.
ROPH     .Омм                               :Кажущееся сопротивление зонда И 0.175 И 0.525 Г, L=0.7м 3.505МГц, Омм - 8.504 м.
PHLD     .град                              :Разность фаз по зонду И 0.175 И 0.875 Г, L=1.05м 0.88МГц, град - 8.504 м.
ROPLD    .Омм                               :Кажущееся сопротивление зонда И 0.175 И 0.875 Г, L=1.05м 0.88МГц, Омм - 8.504 м.
PHHD     .град                              :Разность фаз по зонду И 0.35 И 0.7 Г, L=1.05м 3.505МГц, град - 8.154 м.
ROPHD    .Омм                               :Кажущееся сопротивление зонда И 0.35 И 0.7 Г, L=1.05м 3.505МГц, Омм - 8.154 м.
PHLE     .град                              :Разность фаз по зонду И 0.525 И 0.875 Г, L=1.4м 0.88МГц, град - 8.154 м.
ROPLE    .Омм                               :Кажущееся сопротивление зонда И 0.525 И 0.875 Г, L=1.4м 0.88МГц, Омм - 8.154 м.
PHHE     .град                              :Разность фаз по зонду И 0.525 И 0.525 Г, L=1.05м 3.505МГц, град - 8.154 м.
ROPHE    .Омм                               :Кажущееся сопротивление зонда И 0.525 И 0.525 Г, L=1.05м 3.505МГц, Омм - 8.154 м.
AL       .                                  :Отношение амплитуд, зонд И 0.35 И 1.05 Г, L=1.4м 0.88МГц, отношение амплитуд - 8.154 м.
AH       .                                  :Отношение амплитуд, зонд И 0.175 И 0.525 Г, L=0.7м 3.505МГц, отношение амплитуд - 8.504 м.
ALD      .                                  :Отношение амплитуд, зонд И 0.175 И 0.875 Г,  L=1.05м 0.88МГц, отношение амплитуд - 8.504 м.
AHD      .                                  :Отношение амплитуд, зонд И 0.35 И 0.7 Г, L=1.05м 3.505МГц, отношение амплитуд - 8.154 м.
ALE      .                                  :Отношение амплитуд, зонд И 0.525 И 0.875 Г, L=1.4м 0.88МГц, отношение амплитуд - 8.154 м.
AHE      .                                  :Отношение амплитуд, зонд И 0.525 И 0.525 Г, L=1.05м 3.505МГц, отношение амплитуд - 8.154 м.
RGR_VIKPB.имп/мин                           :Счет интегрального ГК, имп/мин - 9.049 м.
GR_VIKPB .мкР/ч                             :Естественная гамма-активность, мкР/ч - 9.049 м.
GR_AVG_VIKPB.мкР/ч                             :Естественная гамма-активность, мкР/ч - 9.049 м.
OPRS     .МПа                               :Давление затрубное - 8.337 м.
~PARAMETER INFORMATION BLOCK
#    MNEM.UNIT                      API CODE:CURVE DESCRIPTION
#========.==================================:=========================================

~OTHER INFORMATION


~A           SPEE       IPRS        RGR         GR     GR_AVG         RNTN       RFTN       NTNL       FTNL       TRNP          RSDL         RLDL       RHOB  RHOB_POST       RAD1    RAD2    RAD3       CALI        PHL        ROPL        PHH       ROPH       PHLD      ROPLD       PHHD       ROPHD       PHLE      ROPLE       PHHE       ROPHE         AL         AH        ALD        AHD        ALE        AHE  RGR_VIKPB   GR_VIKPB _AVG_VIKPB       OPRS
# ...
3319.4   32.72727   41.80000 2527.50000   10.22500    9.92500  92540.00000 1060.00000    2.46400    4.78767   42.03333 1649040.00000 239730.00000    2.38000    2.38303   65.77143    0.00    0.00  134.65714    1.49143    97.05500    1.80875   74.36900    0.73000   75.82925    3.42143   131.40729    2.59571   69.18129    7.01286    63.69571    0.98157    1.01125    1.01013    0.98186    0.99029    0.98500  930.00000    5.72500    5.57500   34.52313
3319.6   40.00000   41.18000 2544.23077   10.28846    9.97692  96625.00000 1145.00000    2.57292    5.17158   42.90000 1530640.00000 222650.00000    2.38000    2.38258   66.10000    0.00    0.00  128.95000    1.94889    66.35844    2.40667   50.64500    0.85000   62.37533    5.06000    65.76322    2.43000   76.70078    6.26889    77.44767    0.98089    1.01033    1.01067    0.97278    0.99111    0.98756  865.71429    5.34286    5.17143   34.66683
3319.8   45.00000   40.08333 2600.00000   10.50000   10.70000 100620.00000 1208.57143    2.67943    5.45871   41.28571 1577220.00000 233560.00000    2.36833    2.36930   61.71667    0.00    0.00  127.66667    2.57000    46.97960    2.78250   42.50825    0.91000   57.93100    7.45200    37.97500    3.49600   48.70580    9.65600    42.43840    0.98020    1.01000    1.00950    0.96820    0.98760    0.97700  700.00000    4.25000    4.22000   34.60800
3320.0   36.00000   39.45217 2550.00000   10.30000    9.80000  97296.00000 1032.00000    2.59100    4.66120   45.68000 1538325.00000 226965.00000    2.37250    2.37203   67.50000    0.00    0.00  128.28000    3.23333    35.59167    4.10000   26.76583    1.27833   39.42317    9.84667    26.09767    4.07000   40.00433   12.43667    30.49767    0.98067    1.00783    1.00967    0.96500    0.99000    0.97367  780.00000    4.82500    5.06000   34.54150
3320.2   27.69231   39.50000 2580.00000   10.42500    9.27500  92076.00000  996.00000    2.45180    4.49860   46.30000 1652376.00000 260742.00000    2.31800    2.32202   72.48000    0.00    0.00  145.94000    3.05750    39.52000    3.12000   23.89850    0.97167  117.99300    9.62500    28.79475    4.06750   40.61475   12.56750    30.71350    0.98050    1.01150    1.01000    0.96600    0.99000    0.97425  920.00000    5.70000    5.35000   34.55017
3320.4   30.00000   41.00000 2410.00000    9.75000    9.28000  88890.00000  990.00000    2.36700    4.47150   42.90000 1910880.00000 280390.00000    2.37167    2.37611   67.56000    0.00    0.00  130.00000    1.41333   115.29800   -0.19600  184.17500    0.13200  132.43200    3.07333   102.70560    2.79000   63.99650    7.68500    57.71933    0.98117    1.01820    1.01080    0.97917    0.99050    0.98517  775.38462    4.76154    4.74615   34.55267
3320.6   32.72727   41.23333 2505.00000   10.10000    9.46000  91176.00000 1044.00000    2.42800    4.71540   45.34000 1728800.00000 244650.00000    2.40167    2.40305   61.00000    0.00    0.00  128.25000    1.31833   141.09600    2.24000   55.59475    0.79500   67.36525    2.63500   987.21740    1.90833  104.92517    4.21167   148.21650    0.98150    1.01350    1.00950    0.98117    0.99183    0.99417  630.00000    3.92500    3.98750   34.64680
3320.8   32.72727   40.86000 2016.00000    8.16000    9.36000  91404.00000  996.00000    2.43400    4.49860   44.52000 1640376.00000 237876.00000    2.38400    2.38488   61.57500    0.00    0.00  129.43333    1.97800    64.05780    2.36143   53.01800    0.83286   64.62943    4.88800    65.25180    2.32000   80.24060    5.70400    85.97720    0.98100    1.01243    1.01014    0.97660    0.99100    0.99160  680.00000    4.23333    4.42500   34.61800
3321.0   32.72727   41.00000 2295.00000    9.27500    9.55000  91491.42857 1028.57143    2.43629    4.64571   44.22857 1665168.00000 245424.00000    2.37000    2.37280   65.13333    0.00    0.00  131.03333    1.88000    67.95567    1.93200   67.78740    0.71100   77.24810    4.70333    68.52633    2.67000   66.72267    7.06333    62.65533    0.98100    1.01170    1.01010    0.97400    0.99067    0.98567  790.00000    4.81667    4.84000   34.62525
3321.2   32.72727   41.48000 2385.00000    9.65000    9.67500  95490.00000 1090.00000    2.54283    4.92317   44.35000 1632156.00000 243852.00000    2.35800    2.36269   68.53333    0.00    0.00  128.40000    1.90125    67.22525    2.14143   58.91843    0.74714   73.05386    4.74000    68.00875    2.70000   65.87550    7.07500    62.65050    0.98150    1.01443    1.01000    0.97463    0.99075    0.98550  888.00000    5.50000    5.44000   34.47089
3321.4   27.69231   41.36000 2320.00000    9.38333    9.40000  96732.00000  996.00000    2.57580    4.49860   46.78000 1550820.00000 228060.00000    2.37250    2.37447   59.12000    0.00    0.00  126.78000    2.00500    63.09370    2.30667   53.74433    0.80667   67.43067    5.26800    59.42680    2.70000   65.95200    7.25300    60.84060    0.98070    1.01000    1.00933    0.97430    0.99030    0.98540  912.00000    5.60000    5.52000   34.51900
3321.6   22.50000   40.66000 2112.00000    8.52000    9.40000  94700.00000  850.00000    2.52183    3.83917   52.98333 1550620.00000 227510.00000    2.37500    2.37617   62.00000    0.00    0.00  109.90000    2.08833    60.10900    2.38000   51.95533    0.81667   65.86017    5.50333    56.17583    2.85333   61.64667    7.64000    56.83600    0.98000    1.01050    1.01050    0.96917    0.99050    0.98267  690.00000    4.23333    4.30000   34.48275
3321.8    1.46187   40.30000 2220.00000    8.97500    9.06667  96420.00000  984.00000    2.56740    4.44440   47.22000 1622794.28571 244294.28571    2.35571    2.35706   64.24000    0.00    0.00  123.68000    2.35500    52.24125    2.94400   40.59420    0.96000   54.96420    6.47750    45.77275    3.13000   55.14650    8.69500    48.29475    0.97900    1.00900    1.01040    0.96725    0.98900    0.97650  820.00000    5.06667    5.50000   34.63717
3322.0    0.35131   39.71667 2400.00000    9.70000    9.47500  98460.00000 1110.00000    2.62183    5.01350   44.35000 1674612.00000 240828.00000    2.38600    2.39107   65.06000    0.00    0.00  130.74000    2.33000    52.88250    3.00333   39.39633    0.95500   55.46100    6.36667    46.59600    3.16000   54.52300    8.88667    46.99700    0.97967    1.00967    1.01083    0.96917    0.98967    0.97783  820.00000    5.02500    4.87273   34.69560
3322.2   51.42857   40.88000 2652.00000   10.72000   10.80000  98074.28571 1174.28571    2.61129    5.30386   41.12857 1679040.00000 241760.00000    2.38833    2.39017   71.71667    0.00    0.00  146.30000    2.35833    52.25017    2.69500   44.15800    0.90000   58.55875    6.38000    46.81283    3.36167   50.72033    9.59500    42.82200    0.98033    1.01025    1.01000    0.97133    0.99050    0.97950  670.00000    4.13333    4.26667   34.48500
3322.4   45.00000   41.26667 2580.00000   10.41667   11.48333  95077.50000 1372.50000    2.53163    6.19913   34.90000 1658976.00000 214344.00000    2.46800    2.47077   66.21667    0.00    0.00  131.56667    2.14667    60.85050    3.85000   29.27950    1.22750   41.85800    5.73833    58.90250    3.08000   57.73017    8.47833    52.71500    0.97983    1.01250    1.00950    0.97233    0.98983    0.98167  950.00000    5.75000    5.48333   34.63967
3322.6   40.00000   41.10000 2835.00000   11.48750   11.65556  95366.00000 1128.00000    2.53943    5.09480   41.99333 1609470.00000 217290.00000    2.43833    2.43807   63.36667    0.00    0.00  128.06667    1.65667    78.72567    1.51583   59.39067    0.60167   94.17600    3.69333    92.25600    2.58000   69.47133    6.54333    68.80067    0.97967    1.01267    1.00992    0.97467    0.99000    0.98467  972.00000    5.94000    6.10000   34.66625
3322.8   36.00000   40.48889 3170.00000   12.80000   12.06000  90912.85714  981.42857    2.42089    4.43279   45.42857 1708440.00000 240504.00000    2.40200    2.40696   62.30000    0.00    0.00  123.84000    1.82636    75.58709    2.13571   60.28243    0.77143   70.77914    4.33727    98.93982    2.54091   71.92300    6.20273    77.05118    0.98055    1.01143    1.01043    0.97218    0.99082    0.98400 1185.00000    7.32500    7.47500   34.56917
