# © ООО НПП ГА «Луч», 2008 - 2018/1.0.349.0.230602/CНГ УБР-1
~VERSION INFORMATION
VERS     .                               2.0:CWLS LAS VERSION
WRAP     .                                NO: One line per depth step
~WELL INFORMATION
#    MNEM.UNIT                     DATA TYPE:INFORMATION
#========.==================================:=========================================
STRT     .M                           3103.4:FIRST DEPTH IN FILE
STOP     .M                             3700:LAST DEPTH IN FILE
STEP     .M                              0.2:DEPTH INCREMENT
NULL     .                           -999.25:NULL VALUES
DATE     .                        13/10/2045:Дата каротажа
DRVD     .                   :Наименование драйвера прибора
SRVC     .                          :Сервисная компания
COMP     .                   :Оператор месторожения
FLD      .                1:Название месторождения
CLST     .                                1:Номер куста
WELL     .                       1:Номер скважины
OPRT     .                          :ФИО оператора
~CURVE INFORMATION
#    MNEM.UNIT                      API CODE:CURVE DESCRIPTION
#========.==================================:=========================================
DEPT     .M                                 :DEPT
SPEE     .M/H                               :Скорость, м/час - 12.326 м.
IPRS     .МПа                               :Давление внутритрубное - 19.116 м.
RGR      .имп/мин                           :Счет интегрального ГК, имп/мин - 14.601 м.
GR       .мкР/ч                             :Естественная гамма-активность, мкР/ч - 14.601 м.
GR_AVG   .мкР/ч                             :Естественная гамма-активность, мкР/ч - 14.601 м.
RNTN     .имп/мин                           :Счет по каналу малого зонда ННКт, имп./мин. - 11.506 м.
RFTN     .имп/мин                           :Счет по каналу большого зонда ННКт,  имп./мин. - 11.506 м.
NTNL     .у.е.                              :Малый зонд ННКт, у.е. - 11.506 м.
FTNL     .у.е.                              :Большой зонд ННКт, у.е. - 11.506 м.
TRNP     .%                                 :Кажущиеся пористость по ННКТ KNNA+KNNB*A+KNNC*A*A, где A=NTNL/FTNL., % - 11.506 м.
RSDL     .имп/мин                           :Счёт, ближний зонд ГГКП, имп/мин - 10.766 м.
RLDL     .имп/мин                           :Счёт, дальний зонд ГГКП, имп/мин - 10.766 м.
RHOB     .г/см3                             :Плотность, г/см3 - 10.766 м.
RHOB_POST.g/cm3                             :Плотность, г/см3 - 10.766 м.
RAD1     .мм                                :Радиус 1 профилемера, мм - 10.283 м.
RAD2     .мм                                :Радиус 2 профилемера, мм - 10.283 м.
RAD3     .мм                                :Радиус 3 профилемера, мм - 10.283 м.
CALI     .мм                                :Диаметр скважины, мм - 10.283 м.
PHL      .град                              :Разность фаз по зонду И 0.35 И 1.05 Г L=1.4м 0.88МГц, град - 8.154 м.
ROPL     .Омм                               :Кажущееся сопротивление зонда И 0.35 И 1.05 Г, L=1.4м 0.88МГц, Омм - 8.154 м.
PHH      .град                              :Разность фаз по зонду И 0.175 И 0.525 Г,  L=0.7м 3.505МГц, град - 8.504 м.
ROPH     .Омм                               :Кажущееся сопротивление зонда И 0.175 И 0.525 Г, L=0.7м 3.505МГц, Омм - 8.504 м.
PHLD     .град                              :Разность фаз по зонду И 0.175 И 0.875 Г, L=1.05м 0.88МГц, град - 8.504 м.
ROPLD    .Омм                               :Кажущееся сопротивление зонда И 0.175 И 0.875 Г, L=1.05м 0.88МГц, Омм - 8.504 м.
PHHD     .град                              :Разность фаз по зонду И 0.35 И 0.7 Г, L=1.05м 3.505МГц, град - 8.154 м.
ROPHD    .Омм                               :Кажущееся сопротивление зонда И 0.35 И 0.7 Г, L=1.05м 3.505МГц, Омм - 8.154 м.
PHLE     .град                              :Разность фаз по зонду И 0.525 И 0.875 Г, L=1.4м 0.88МГц, град - 8.154 м.
ROPLE    .Омм                               :Кажущееся сопротивление зонда И 0.525 И 0.875 Г, L=1.4м 0.88МГц, Омм - 8.154 м.
PHHE     .град                              :Разность фаз по зонду И 0.525 И 0.525 Г, L=1.05м 3.505МГц, град - 8.154 м.
ROPHE    .Омм                               :Кажущееся сопротивление зонда И 0.525 И 0.525 Г, L=1.05м 3.505МГц, Омм - 8.154 м.
AL       .                                  :Отношение амплитуд, зонд И 0.35 И 1.05 Г, L=1.4м 0.88МГц, отношение амплитуд - 8.154 м.
AH       .                                  :Отношение амплитуд, зонд И 0.175 И 0.525 Г, L=0.7м 3.505МГц, отношение амплитуд - 8.504 м.
ALD      .                                  :Отношение амплитуд, зонд И 0.175 И 0.875 Г,  L=1.05м 0.88МГц, отношение амплитуд - 8.504 м.
AHD      .                                  :Отношение амплитуд, зонд И 0.35 И 0.7 Г, L=1.05м 3.505МГц, отношение амплитуд - 8.154 м.
ALE      .                                  :Отношение амплитуд, зонд И 0.525 И 0.875 Г, L=1.4м 0.88МГц, отношение амплитуд - 8.154 м.
AHE      .                                  :Отношение амплитуд, зонд И 0.525 И 0.525 Г, L=1.05м 3.505МГц, отношение амплитуд - 8.154 м.
RGR_VIKPB.имп/мин                           :Счет интегрального ГК, имп/мин - 9.049 м.
GR_VIKPB .мкР/ч                             :Естественная гамма-активность, мкР/ч - 9.049 м.
GR_AVG_VIKPB.мкР/ч                             :Естественная гамма-активность, мкР/ч - 9.049 м.
OPRS     .МПа                               :Давление затрубное - 8.337 м.
~PARAMETER INFORMATION BLOCK
#    MNEM.UNIT                      API CODE:CURVE DESCRIPTION
#========.==================================:=========================================

~OTHER INFORMATION


~A           SPEE       IPRS        RGR         GR     GR_AVG         RNTN       RFTN       NTNL       FTNL       TRNP          RSDL         RLDL       RHOB  RHOB_POST       RAD1    RAD2    RAD3       CALI        PHL        ROPL        PHH       ROPH       PHLD      ROPLD       PHHD       ROPHD       PHLE      ROPLE       PHHE       ROPHE         AL         AH        ALD        AHD        ALE        AHE  RGR_VIKPB   GR_VIKPB _AVG_VIKPB       OPRS
# ...
3171.8   60.00000   36.97500 1075.38462    4.36154    4.50000  60120.00000  480.00000    1.60100    2.16800   62.25000  626640.00000  63340.00000    2.65000    2.65340   74.00000    0.00    0.00  166.96667   -0.01000  -999.25000   -0.01000 -999.25000   -0.01000 -999.25000   -0.01000  -999.25000   -0.01000 -999.25000   -0.01000  -999.25000    1.00000    1.00000    1.00000    1.00000    1.00000    1.00000  540.00000    3.33333    2.83333   32.85300
3172.0   72.00000   36.80000 1025.33333    4.14667    4.42174  62360.00000  540.00000    1.66033    2.43900   57.10000  591580.00000  56340.00000    2.69667    2.69770   77.37500    0.00    0.00  153.20000   -0.01000  -999.25000   -0.01000 -999.25000   -0.01000 -999.25000   -0.01000  -999.25000   -0.01000 -999.25000   -0.01000  -999.25000    1.00000    1.00000    1.00000    1.00000    1.00000    1.00000  420.00000    2.50000    2.63333   32.72500
3172.2   72.00000   36.63333 1194.08451    4.83803    4.68514  58785.00000  525.00000    1.56525    2.37125   52.55000  559440.00000  52400.00000    2.70667    2.71007   78.30000    0.00    0.00  146.03333   -0.01000  -999.25000   -0.01000 -999.25000   -0.01000 -999.25000   -0.01000  -999.25000   -0.01000 -999.25000   -0.01000  -999.25000    1.00000    1.00000    1.00000    1.00000    1.00000    1.00000  380.00000    2.46667    2.23333   32.63367
3172.4   60.00000   37.10000 1140.00000    4.60000    4.80000  59280.00000  520.00000    1.57833    2.34867   54.90000  539920.00000  48200.00000    2.74333    2.74581   75.16667    0.00    0.00  144.73333   -0.01000  -999.25000   -0.01000 -999.25000   -0.01000 -999.25000   -0.01000  -999.25000   -0.01000 -999.25000   -0.01000  -999.25000    1.00000    1.00000    1.00000    1.00000    1.00000    1.00000  300.00000    1.85000    1.93333   32.75667
3172.6   72.00000   37.06667 1776.00000    7.18000    7.14000  57090.00000  360.00000    1.52000    1.62600   72.10000  532420.00000  44660.00000    2.79000    2.79215   63.30000    0.00    0.00  129.50000   -0.01000  -999.25000   -0.01000 -999.25000   -0.01000 -999.25000   -0.01000  -999.25000   -0.01000 -999.25000   -0.01000  -999.25000    1.00000    1.00000    1.00000    1.00000    1.00000    1.00000  260.00000    1.60000    1.75000   32.60200
3172.8    5.58643   36.75000 3255.00000   13.17500   12.00000  56600.00000  540.00000    1.50700    2.43900   50.56667  521025.00000  52920.00000    2.65000    2.64980   76.70000    0.00    0.00  153.76667   -0.01000  -999.25000   -0.01000 -999.25000   -0.01000 -999.25000   -0.01000  -999.25000   -0.01000 -999.25000   -0.01000  -999.25000    1.00000    1.00000    1.00000    1.00000    1.00000    1.00000  252.00000    1.60000    1.52500   32.79833
3173.0    0.80798   36.52000 2508.00000   10.14000    9.24000  56300.00000  500.00000    1.49900    2.25833   53.93333  547700.00000  59020.00000    2.60000    2.60578   76.06667    0.00    0.00  149.60000   -0.01000  -999.25000   -0.01000 -999.25000   -0.01000 -999.25000   -0.01000  -999.25000   -0.01000 -999.25000   -0.01000  -999.25000    1.00000    1.00000    1.00000    1.00000    1.00000    1.00000  225.00000    1.37500    1.34000   32.95733
3173.2   51.42857   35.80000 1332.00000    5.40000    6.35000  57540.00000  480.00000    1.53233    2.16800   56.50000  532800.00000  55300.00000    2.63000    2.63370   87.70000    0.00    0.00  178.53333   -0.01000  -999.25000   -0.01000 -999.25000   -0.01000 -999.25000   -0.01000  -999.25000   -0.01000 -999.25000   -0.01000  -999.25000    1.00000    1.00000    1.00000    1.00000    1.00000    1.00000  240.00000    1.46667    1.63333   32.72533
3173.4   60.00000   36.86000 1170.00000    4.72500    5.72500  57720.00000  480.00000    1.53700    2.16800   60.60000  540330.00000  57420.00000    2.61000    2.61615   91.96667    0.00    0.00  172.90000   -0.01000  -999.25000   -0.01000 -999.25000   -0.01000 -999.25000   -0.01000  -999.25000   -0.01000 -999.25000   -0.01000  -999.25000    1.00000    1.00000    1.00000    1.00000    1.00000    1.00000  300.00000    1.83333    1.66667   32.84900
3173.6   60.00000   37.10000 1180.00000    4.76667    5.05000  57205.71429  527.14286    1.52321    2.38093   53.17857  538780.00000  58680.00000    2.59667    2.59787   86.62500    0.00    0.00  173.72500   -0.01000  -999.25000   -0.01000 -999.25000   -0.01000 -999.25000   -0.01000  -999.25000   -0.01000 -999.25000   -0.01000  -999.25000    1.00000    1.00000    1.00000    1.00000    1.00000    1.00000  255.00000    1.52500    1.63333   32.79660
3173.8   60.00000   36.78000 1080.00000    4.36667    5.03333  47565.00000  315.00000    1.26650    1.42275   74.07500  551360.00000  57220.00000    2.63000    2.63378   83.10000    0.00    0.00  148.40000   -0.01000  -999.25000   -0.01000 -999.25000   -0.01000 -999.25000   -0.01000  -999.25000   -0.01000 -999.25000   -0.01000  -999.25000    1.00000    1.00000    1.00000    1.00000    1.00000    1.00000  280.00000    1.76667    1.83333   32.67300
3174.0    1.53191   37.06667 1332.00000    5.38000    5.45000  48750.00000  360.00000    1.29825    1.62600   63.17500  553980.00000  38670.00000    2.92500    2.92883   80.36667    0.00    0.00  167.50000   -0.01000  -999.25000   -0.01000 -999.25000   -0.01000 -999.25000   -0.01000  -999.25000   -0.01000 -999.25000   -0.01000  -999.25000    1.00000    1.00000    1.00000    1.00000    1.00000    1.00000  360.00000    2.20000    1.86667   32.85867
3174.2    0.49308   37.25000 1680.00000    6.80000    6.20000  48840.00000  400.00000    1.30033    1.80667   59.30000  347400.00000  32380.00000    2.66000    2.71372   78.43333    0.00    0.00  152.46667   -0.01000  -999.25000   -0.01000 -999.25000   -0.01000 -999.25000   -0.01000  -999.25000   -0.01000 -999.25000   -0.01000  -999.25000    1.00000    1.00000    1.00000    1.00000    1.00000    1.00000  255.00000    1.65000    1.66667   32.81550
3174.4    2.61059   36.70000 2140.00000    8.66667    7.40000  47880.00000  320.00000    1.27467    1.44533   69.63333  322680.00000  37084.28571    2.55333    2.55788   84.50000    0.00    0.00  168.60000   -0.01000  -999.25000   -0.01000 -999.25000   -0.01000 -999.25000   -0.01000  -999.25000   -0.01000 -999.25000   -0.01000  -999.25000    1.00000    1.00000    1.00000    1.00000    1.00000    1.00000  270.00000    1.60000    1.93333   32.65867
3174.6    2.97521   37.05000 1780.00000    7.20000    8.66667  51240.00000  390.00000    1.36450    1.76150   60.40000  469365.00000  48480.00000    2.62500    2.63731   82.80000    0.00    0.00  165.80000   -0.01000  -999.25000   -0.01000 -999.25000   -0.01000 -999.25000   -0.01000  -999.25000   -0.01000 -999.25000   -0.01000  -999.25000    1.00000    1.00000    1.00000    1.00000    1.00000    1.00000  360.00000    2.20000    2.26667   32.79800
3174.8    5.53846   37.35000 2820.00000   11.42500   10.30000  55875.00000  690.00000    1.48800    3.11650   40.52500  625275.00000  64155.00000    2.64500    2.64227   76.18810    0.00    0.00  147.64286   -0.01000  -999.25000   -0.01000 -999.25000   -0.01000 -999.25000   -0.01000  -999.25000   -0.01000 -999.25000   -0.01000  -999.25000    1.00000    1.00000    1.00000    1.00000    1.00000    1.00000  500.00000    2.96667    2.42500   32.70633
3175.0   36.00000   37.46667 1940.00000    7.86667    7.80000  53464.39024  427.31707    1.42368    1.93005   63.50000  602340.00000  76000.00000    2.48667    2.48841   80.05000    0.00    0.00  151.25000   -0.01000  -999.25000   -0.01000 -999.25000   -0.01000 -999.25000   -0.01000  -999.25000   -0.01000 -999.25000   -0.01000  -999.25000    1.00000    1.00000    1.00000    1.00000    1.00000    1.00000  280.00000    1.73333    2.05000   32.70633
3175.2   36.00000   37.33333 1560.00000    6.30000    6.32500  51319.68750  430.31250    1.36659    1.94358   60.19688  666160.00000  81880.00000    2.50667    2.50790   65.86667    0.00    0.00  156.96667   -0.01000  -999.25000   -0.01000 -999.25000   -0.01000 -999.25000   -0.01000  -999.25000   -0.01000 -999.25000   -0.01000  -999.25000    1.00000    1.00000    1.00000    1.00000    1.00000    1.00000  360.00000    2.40000    2.13333   32.70067
