# © ООО НПП ГА «Луч», 2008 - 2018/1.0.349.0.230602/CНГ УБР-1
~VERSION INFORMATION
VERS     .                               2.0:CWLS LAS VERSION
WRAP     .                                NO: One line per depth step
~WELL INFORMATION
#    MNEM.UNIT                     DATA TYPE:INFORMATION
#========.==================================:=========================================
STRT     .M                           3103.4:FIRST DEPTH IN FILE
STOP     .M                             3700:LAST DEPTH IN FILE
STEP     .M                              0.2:DEPTH INCREMENT
NULL     .                           -999.25:NULL VALUES
DATE     .                        13/10/2045:Дата каротажа
DRVD     .                   :Наименование драйвера прибора
SRVC     .                          :Сервисная компания
COMP     .                   :Оператор месторожения
FLD      .                1:Название месторождения
CLST     .                                1:Номер куста
WELL     .                       1:Номер скважины
OPRT     .                          :ФИО оператора
~CURVE INFORMATION
#    MNEM.UNIT                      API CODE:CURVE DESCRIPTION
#========.==================================:=========================================
DEPT     .M                                 :DEPT
SPEE     .M/H                               :Скорость, м/час - 12.326 м.
IPRS     .МПа                               :Давление внутритрубное - 19.116 м.
RGR      .имп/мин                           :Счет интегрального ГК, имп/мин - 14.601 м.
GR       .мкР/ч                             :Естественная гамма-активность, мкР/ч - 14.601 м.
GR_AVG   .мкР/ч                             :Естественная гамма-активность, мкР/ч - 14.601 м.
RNTN     .имп/мин                           :Счет по каналу малого зонда ННКт, имп./мин. - 11.506 м.
RFTN     .имп/мин                           :Счет по каналу большого зонда ННКт,  имп./мин. - 11.506 м.
NTNL     .у.е.                              :Малый зонд ННКт, у.е. - 11.506 м.
FTNL     .у.е.                              :Большой зонд ННКт, у.е. - 11.506 м.
TRNP     .%                                 :Кажущиеся пористость по ННКТ KNNA+KNNB*A+KNNC*A*A, где A=NTNL/FTNL., % - 11.506 м.
RSDL     .имп/мин                           :Счёт, ближний зонд ГГКП, имп/мин - 10.766 м.
RLDL     .имп/мин                           :Счёт, дальний зонд ГГКП, имп/мин - 10.766 м.
RHOB     .г/см3                             :Плотность, г/см3 - 10.766 м.
RHOB_POST.g/cm3                             :Плотность, г/см3 - 10.766 м.
RAD1     .мм                                :Радиус 1 профилемера, мм - 10.283 м.
RAD2     .мм                                :Радиус 2 профилемера, мм - 10.283 м.
RAD3     .мм                                :Радиус 3 профилемера, мм - 10.283 м.
CALI     .мм                                :Диаметр скважины, мм - 10.283 м.
PHL      .град                              :Разность фаз по зонду И 0.35 И 1.05 Г L=1.4м 0.88МГц, град - 8.154 м.
ROPL     .Омм                               :Кажущееся сопротивление зонда И 0.35 И 1.05 Г, L=1.4м 0.88МГц, Омм - 8.154 м.
PHH      .град                              :Разность фаз по зонду И 0.175 И 0.525 Г,  L=0.7м 3.505МГц, град - 8.504 м.
ROPH     .Омм                               :Кажущееся сопротивление зонда И 0.175 И 0.525 Г, L=0.7м 3.505МГц, Омм - 8.504 м.
PHLD     .град                              :Разность фаз по зонду И 0.175 И 0.875 Г, L=1.05м 0.88МГц, град - 8.504 м.
ROPLD    .Омм                               :Кажущееся сопротивление зонда И 0.175 И 0.875 Г, L=1.05м 0.88МГц, Омм - 8.504 м.
PHHD     .град                              :Разность фаз по зонду И 0.35 И 0.7 Г, L=1.05м 3.505МГц, град - 8.154 м.
ROPHD    .Омм                               :Кажущееся сопротивление зонда И 0.35 И 0.7 Г, L=1.05м 3.505МГц, Омм - 8.154 м.
PHLE     .град                              :Разность фаз по зонду И 0.525 И 0.875 Г, L=1.4м 0.88МГц, град - 8.154 м.
ROPLE    .Омм                               :Кажущееся сопротивление зонда И 0.525 И 0.875 Г, L=1.4м 0.88МГц, Омм - 8.154 м.
PHHE     .град                              :Разность фаз по зонду И 0.525 И 0.525 Г, L=1.05м 3.505МГц, град - 8.154 м.
ROPHE    .Омм                               :Кажущееся сопротивление зонда И 0.525 И 0.525 Г, L=1.05м 3.505МГц, Омм - 8.154 м.
AL       .                                  :Отношение амплитуд, зонд И 0.35 И 1.05 Г, L=1.4м 0.88МГц, отношение амплитуд - 8.154 м.
AH       .                                  :Отношение амплитуд, зонд И 0.175 И 0.525 Г, L=0.7м 3.505МГц, отношение амплитуд - 8.504 м.
ALD      .                                  :Отношение амплитуд, зонд И 0.175 И 0.875 Г,  L=1.05м 0.88МГц, отношение амплитуд - 8.504 м.
AHD      .                                  :Отношение амплитуд, зонд И 0.35 И 0.7 Г, L=1.05м 3.505МГц, отношение амплитуд - 8.154 м.
ALE      .                                  :Отношение амплитуд, зонд И 0.525 И 0.875 Г, L=1.4м 0.88МГц, отношение амплитуд - 8.154 м.
AHE      .                                  :Отношение амплитуд, зонд И 0.525 И 0.525 Г, L=1.05м 3.505МГц, отношение амплитуд - 8.154 м.
RGR_VIKPB.имп/мин                           :Счет интегрального ГК, имп/мин - 9.049 м.
GR_VIKPB .мкР/ч                             :Естественная гамма-активность, мкР/ч - 9.049 м.
GR_AVG_VIKPB.мкР/ч                             :Естественная гамма-активность, мкР/ч - 9.049 м.
OPRS     .МПа                               :Давление затрубное - 8.337 м.
~PARAMETER INFORMATION BLOCK
#    MNEM.UNIT                      API CODE:CURVE DESCRIPTION
#========.==================================:=========================================

~OTHER INFORMATION


~A           SPEE       IPRS        RGR         GR     GR_AVG         RNTN       RFTN       NTNL       FTNL       TRNP          RSDL         RLDL       RHOB  RHOB_POST       RAD1    RAD2    RAD3       CALI        PHL        ROPL        PHH       ROPH       PHLD      ROPLD       PHHD       ROPHD       PHLE      ROPLE       PHHE       ROPHE         AL         AH        ALD        AHD        ALE        AHE  RGR_VIKPB   GR_VIKPB _AVG_VIKPB       OPRS
# ...
3575.0   90.00000   42.42500 5200.00000   21.03333   21.15000  92047.50000  840.00000    2.45088    3.79400   54.32500 1441440.00000 159420.00000    2.58600    2.58644   66.66667    0.00    0.00  135.17778    5.10571    19.75214    6.22714   15.07914    2.12286   21.14814   14.15857    15.40857    7.15857   19.08271   19.88143    15.87086    0.97143    0.98971    1.00271    0.91343    0.97371    0.90271  582.85714    3.55714    3.51667   36.54063
3575.2   36.00000   40.06024 3080.00000   12.45467   12.35405  95109.52381  926.66667    2.53260    4.18544   49.58095 1460430.00000 161556.00000    2.58500    2.58628   65.84444    0.00    0.00  132.44444    5.20800    19.23720    6.47125   14.31950    2.15875   20.71125   14.32400    15.14720    7.35600   18.39000   20.66600    15.01840    0.97140    0.98813    1.00275    0.91400    0.97340    0.90160  555.65217    3.40870    3.41429   36.58575
3575.4   22.50000   39.92000 2550.00000   10.30000   10.95000  94620.00000  906.66667    2.51956    4.09511   50.12222 1416877.50000 159742.50000    2.57250    2.57215   64.91111    0.00    0.00  133.05556    5.33500    18.64263    6.96857   12.93129    2.30286   19.11514   14.91500    14.27713    7.48375   17.96600   21.15250    14.53000    0.97150    0.98714    1.00271    0.91188    0.97350    0.90150  510.00000    3.10000    3.10000   36.56663
3575.6   25.71429   40.00000 2592.00000   10.46000   10.82000  96060.00000 1200.00000    2.55800    5.42000   39.50000 1445190.00000 166370.00000    2.55833    2.55663   66.38750    0.00    0.00  137.92500    5.23222    19.13111    6.10000   15.53220    2.03400   22.33600   14.59556    14.74622    7.45667   18.05000   21.21667    14.46278    0.97133    0.98900    1.00300    0.91133    0.97378    0.89967  564.00000    3.46000    3.32000   36.50329
3575.8   30.00000   39.95000 2775.00000   11.20000   10.38000  94980.00000  900.00000    2.52950    4.06500   50.30000 1423057.50000 156225.00000    2.59250    2.59196   67.77500    0.00    0.00  133.91250    4.95500    20.55467    6.00353   15.85096    2.03574   22.28835   13.58500    16.38533    7.23167   18.82500   20.51833    15.18167    0.97183    0.98846    1.00207    0.91400    0.97450    0.90217  540.00000    3.35455    3.42500   36.57793
3576.0   30.00000   40.56538 2532.00000   10.24000   10.62000  90630.00000  920.00000    2.41317    4.15533   48.35000 1498882.25806 168390.96774    2.57242    2.57479   63.81000    0.00    0.00  130.49000    4.92286    20.72386    6.03667   15.72600    2.04000   22.22367   13.59357    16.35243    7.01071   19.63564   19.67357    16.11314    0.97243    0.98967    1.00200    0.91429    0.97464    0.90329  594.00000    3.63000    3.72000   36.52543
3576.2   36.00000   40.42000 2832.00000   11.44000   10.26000  92790.00000  984.00000    2.47080    4.44440   46.40000 1522240.00000 170000.00000    2.57778    2.57922   71.61111    0.00    0.00  138.86667    4.98776    20.37012    6.15667   15.31267    2.08667   21.60500   13.74224    16.09290    7.04086   19.52095   19.74966    16.02472    0.97240    0.98867    1.00217    0.91526    0.97424    0.90412  546.00000    3.32000    3.31111   36.31950
3576.4   36.00000   40.82000 2556.00000   10.34000   10.46000  96420.00000 1050.00000    2.56767    4.74250   44.18333 1572180.00000 175650.00000    2.57500    2.57891   69.88254    0.00    0.00  139.74127    5.02000    20.19720    6.14889   15.34067    2.04556   22.14022   13.83200    15.94340    7.09400   19.32400   19.95600    15.78900    0.97240    0.98889    1.00222    0.91540    0.97500    0.90420  473.33333    2.92222    2.85556   36.51613
3576.6   45.00000   40.38000 2340.00000    9.47500    9.85000  95168.57143  977.14286    2.53414    4.41343   48.15714 1453110.00000 166340.00000    2.56000    2.56083   64.80000    0.00    0.00  134.38750    5.02333    20.17733    6.35400   14.67100    2.09500   21.50220   13.89222    15.83711    7.10000   19.29744   20.04444    15.68689    0.97267    0.98880    1.00220    0.91522    0.97478    0.90478  557.14286    3.34286    3.42857   36.44233
3576.8   45.00000   39.80625 2355.00000    9.52500   10.26667  94008.00000  996.00000    2.50340    4.49860   46.42000 1489800.00000 172545.00000    2.55000    2.55213   73.15000    0.00    0.00  141.55000    5.01200    20.23970    6.21700   15.12510    2.07500   21.77010   13.75700    16.06760    7.11700   19.23760   20.07300    15.65790    0.97240    0.98940    1.00290    0.91580    0.97470    0.90500  531.42857    3.28571    3.18750   36.48171
3577.0   36.00000   39.74444 2772.00000   11.20000   10.54000  94350.00000  825.00000    2.51250    3.72625   52.97500 1549186.66667 194220.00000    2.49333    2.49318   56.00000    0.00    0.00  128.90000    5.50600    17.97840    8.25778   10.51522    2.62333   16.44300   15.69600    13.40560    7.62800   17.55620   22.06600    13.75620    0.97240    0.98611    1.00244    0.91360    0.97380    0.90180  485.45455    2.98182    3.02000   36.51630
3577.2   36.00000   39.56316 2304.00000    9.30000    9.92000  89460.00000  792.00000    2.38220    3.57720   55.20000 1706352.00000 183840.00000    2.60600    2.60593   70.95000    0.00    0.00  146.93333    5.46111    18.22844    4.63700   38.80710    1.62800   37.87920   15.63556    13.53756    7.56222   17.78156   21.87111    13.94678    0.97222    0.99080    1.00310    0.91122    0.97456    0.90122  446.66667    2.72222    2.74444   36.49580
3577.4    4.50000   39.58182 2460.00000    9.92500   10.25000  87260.00000  900.00000    2.32333    4.06500   48.80000 1510790.00000 173630.00000    2.55500    2.55788   72.91250    0.00    0.00  142.52500    4.21900    25.69990    4.89429   21.29571    1.73143   27.59129   10.89900    23.31880    6.91100   20.02400   19.41400    16.42620    0.97290    0.99214    1.00343    0.91890    0.97460    0.90460  456.00000    2.86000    2.82000   36.59380
3577.6    4.67532   39.58125 2980.00000   12.06667   12.16667  91280.00000  910.00000    2.43050    4.11017   48.90000 1559448.00000 192492.00000    2.50400    2.50474   70.26250    0.00    0.00  136.73750    4.58182    22.94955    5.83857   16.46257    1.97143   23.20329   12.23455    19.45582    6.08182   23.87282   16.25364    21.29264    0.97309    0.98943    1.00314    0.91545    0.97591    0.90782  475.16129    2.94355    2.93333   36.47070
3577.8   51.42857   39.98333 4656.00000   18.84000   17.24000  94848.00000  912.00000    2.52560    4.11920   49.76000 1641490.00000 192230.00000    2.54167    2.54390   64.41667    0.00    0.00  132.58333    5.20000    19.38056    7.47818   12.22364    2.36364   18.97009   14.61778    14.82478    7.09444   19.35333   20.10889    15.67589    0.97278    0.98691    1.00209    0.91311    0.97600    0.90344  420.00000    2.60000    2.80000   36.52286
3578.0   36.00000   42.54000 6660.00000   26.93333   22.76667  93420.00000  900.00000    2.48780    4.06500   49.90000 1576608.00000 195276.00000    2.49800    2.50220   67.58000    0.00    0.00  138.36000    4.79125    21.57263    4.78375   22.66450    1.70875   28.26788   12.92125    17.81738    7.01250   19.62875   19.80875    15.95850    0.97313    0.99100    1.00250    0.91763    0.97488    0.90538  510.00000    3.12500    2.97500   36.55014
3578.2   60.00000   42.80000 5160.00000   20.86667   19.80000  93800.00000  934.40000    2.49777    4.22037   48.95600 1605744.00000 192720.00000    2.52600    2.52562   71.37500    0.00    0.00  141.87500    5.17833    19.57150    4.54937   27.22449    1.64238   31.27632   14.50833    15.24433    7.55667   17.75217   22.04667    13.71983    0.97283    0.99268    1.00273    0.91533    0.97417    0.90267  400.00000    2.50000    3.05000   36.43867
3578.4   51.42857   42.50000 3780.00000   15.26667   14.80000  92010.00000  930.00000    2.45000    4.20050   47.95000 1532340.00000 179640.00000    2.54000    2.54310   70.00000    0.00    0.00  136.80000    4.69667    22.05122    5.29333   18.75300    1.82333   25.52644   12.79556    17.87989    6.44556   22.03311   17.77222    18.67767    0.97244    0.99167    1.00189    0.92022    0.97500    0.91133  550.00000    3.35000    3.26667   36.51866
