# © ООО НПП ГА «Луч», 2008 - 2018/1.0.349.0.230602/CНГ УБР-1
~VERSION INFORMATION
VERS     .                               2.0:CWLS LAS VERSION
WRAP     .                                NO: One line per depth step
~WELL INFORMATION
#    MNEM.UNIT                     DATA TYPE:INFORMATION
#========.==================================:=========================================
STRT     .M                           3103.4:FIRST DEPTH IN FILE
STOP     .M                             3700:LAST DEPTH IN FILE
STEP     .M                              0.2:DEPTH INCREMENT
NULL     .                           -999.25:NULL VALUES
DATE     .                        13/10/2045:Дата каротажа
DRVD     .                   :Наименование драйвера прибора
SRVC     .                          :Сервисная компания
COMP     .                   :Оператор месторожения
FLD      .                1:Название месторождения
CLST     .                                1:Номер куста
WELL     .                       1:Номер скважины
OPRT     .                          :ФИО оператора
~CURVE INFORMATION
#    MNEM.UNIT                      API CODE:CURVE DESCRIPTION
#========.==================================:=========================================
DEPT     .M                                 :DEPT
SPEE     .M/H                               :Скорость, м/час - 12.326 м.
IPRS     .МПа                               :Давление внутритрубное - 19.116 м.
RGR      .имп/мин                           :Счет интегрального ГК, имп/мин - 14.601 м.
GR       .мкР/ч                             :Естественная гамма-активность, мкР/ч - 14.601 м.
GR_AVG   .мкР/ч                             :Естественная гамма-активность, мкР/ч - 14.601 м.
RNTN     .имп/мин                           :Счет по каналу малого зонда ННКт, имп./мин. - 11.506 м.
RFTN     .имп/мин                           :Счет по каналу большого зонда ННКт,  имп./мин. - 11.506 м.
NTNL     .у.е.                              :Малый зонд ННКт, у.е. - 11.506 м.
FTNL     .у.е.                              :Большой зонд ННКт, у.е. - 11.506 м.
TRNP     .%                                 :Кажущиеся пористость по ННКТ KNNA+KNNB*A+KNNC*A*A, где A=NTNL/FTNL., % - 11.506 м.
RSDL     .имп/мин                           :Счёт, ближний зонд ГГКП, имп/мин - 10.766 м.
RLDL     .имп/мин                           :Счёт, дальний зонд ГГКП, имп/мин - 10.766 м.
RHOB     .г/см3                             :Плотность, г/см3 - 10.766 м.
RHOB_POST.g/cm3                             :Плотность, г/см3 - 10.766 м.
RAD1     .мм                                :Радиус 1 профилемера, мм - 10.283 м.
RAD2     .мм                                :Радиус 2 профилемера, мм - 10.283 м.
RAD3     .мм                                :Радиус 3 профилемера, мм - 10.283 м.
CALI     .мм                                :Диаметр скважины, мм - 10.283 м.
PHL      .град                              :Разность фаз по зонду И 0.35 И 1.05 Г L=1.4м 0.88МГц, град - 8.154 м.
ROPL     .Омм                               :Кажущееся сопротивление зонда И 0.35 И 1.05 Г, L=1.4м 0.88МГц, Омм - 8.154 м.
PHH      .град                              :Разность фаз по зонду И 0.175 И 0.525 Г,  L=0.7м 3.505МГц, град - 8.504 м.
ROPH     .Омм                               :Кажущееся сопротивление зонда И 0.175 И 0.525 Г, L=0.7м 3.505МГц, Омм - 8.504 м.
PHLD     .град                              :Разность фаз по зонду И 0.175 И 0.875 Г, L=1.05м 0.88МГц, град - 8.504 м.
ROPLD    .Омм                               :Кажущееся сопротивление зонда И 0.175 И 0.875 Г, L=1.05м 0.88МГц, Омм - 8.504 м.
PHHD     .град                              :Разность фаз по зонду И 0.35 И 0.7 Г, L=1.05м 3.505МГц, град - 8.154 м.
ROPHD    .Омм                               :Кажущееся сопротивление зонда И 0.35 И 0.7 Г, L=1.05м 3.505МГц, Омм - 8.154 м.
PHLE     .град                              :Разность фаз по зонду И 0.525 И 0.875 Г, L=1.4м 0.88МГц, град - 8.154 м.
ROPLE    .Омм                               :Кажущееся сопротивление зонда И 0.525 И 0.875 Г, L=1.4м 0.88МГц, Омм - 8.154 м.
PHHE     .град                              :Разность фаз по зонду И 0.525 И 0.525 Г, L=1.05м 3.505МГц, град - 8.154 м.
ROPHE    .Омм                               :Кажущееся сопротивление зонда И 0.525 И 0.525 Г, L=1.05м 3.505МГц, Омм - 8.154 м.
AL       .                                  :Отношение амплитуд, зонд И 0.35 И 1.05 Г, L=1.4м 0.88МГц, отношение амплитуд - 8.154 м.
AH       .                                  :Отношение амплитуд, зонд И 0.175 И 0.525 Г, L=0.7м 3.505МГц, отношение амплитуд - 8.504 м.
ALD      .                                  :Отношение амплитуд, зонд И 0.175 И 0.875 Г,  L=1.05м 0.88МГц, отношение амплитуд - 8.504 м.
AHD      .                                  :Отношение амплитуд, зонд И 0.35 И 0.7 Г, L=1.05м 3.505МГц, отношение амплитуд - 8.154 м.
ALE      .                                  :Отношение амплитуд, зонд И 0.525 И 0.875 Г, L=1.4м 0.88МГц, отношение амплитуд - 8.154 м.
AHE      .                                  :Отношение амплитуд, зонд И 0.525 И 0.525 Г, L=1.05м 3.505МГц, отношение амплитуд - 8.154 м.
RGR_VIKPB.имп/мин                           :Счет интегрального ГК, имп/мин - 9.049 м.
GR_VIKPB .мкР/ч                             :Естественная гамма-активность, мкР/ч - 9.049 м.
GR_AVG_VIKPB.мкР/ч                             :Естественная гамма-активность, мкР/ч - 9.049 м.
OPRS     .МПа                               :Давление затрубное - 8.337 м.
~PARAMETER INFORMATION BLOCK
#    MNEM.UNIT                      API CODE:CURVE DESCRIPTION
#========.==================================:=========================================

~OTHER INFORMATION


~A           SPEE       IPRS        RGR         GR     GR_AVG         RNTN       RFTN       NTNL       FTNL       TRNP          RSDL         RLDL       RHOB  RHOB_POST       RAD1    RAD2    RAD3       CALI        PHL        ROPL        PHH       ROPH       PHLD      ROPLD       PHHD       ROPHD       PHLE      ROPLE       PHHE       ROPHE         AL         AH        ALD        AHD        ALE        AHE  RGR_VIKPB   GR_VIKPB _AVG_VIKPB       OPRS
# ...
3135.8   90.00000   36.00000 2280.00000    9.20000    8.05000  48110.00000  380.00000    1.28117    1.71633   61.28333  543120.00000  63780.00000    2.54000    2.54183   68.30000    0.00    0.00  151.65000 -999.25000  -999.25000 -999.25000 -999.25000 -999.25000 -999.25000 -999.25000  -999.25000 -999.25000 -999.25000 -999.25000  -999.25000 -999.25000 -999.25000 -999.25000 -999.25000 -999.25000 -999.25000 -999.25000 -999.25000 -999.25000 -999.25000
3136.0  120.00000   36.10000 1950.00000    7.85000    7.70000  48390.00000  360.00000    1.28850    1.62600   63.20000  549880.00000  64960.00000    2.53333    2.53740   85.60000    0.00    0.00  145.05000 -999.25000  -999.25000 -999.25000 -999.25000 -999.25000 -999.25000 -999.25000  -999.25000 -999.25000 -999.25000 -999.25000  -999.25000 -999.25000 -999.25000 -999.25000 -999.25000 -999.25000 -999.25000 -999.25000 -999.25000 -999.25000 -999.25000
3136.2  120.00000   35.10000 1800.00000    7.30000    7.05000  48880.00000  300.00000    1.30167    1.35500   74.43333  562290.00000  62460.00000    2.58000    2.58320   67.20000    0.00    0.00  135.10000 -999.25000  -999.25000 -999.25000 -999.25000 -999.25000 -999.25000 -999.25000  -999.25000 -999.25000 -999.25000 -999.25000  -999.25000 -999.25000 -999.25000 -999.25000 -999.25000 -999.25000 -999.25000 -999.25000 -999.25000 -999.25000 -999.25000
3136.4  120.00000   35.70000 1710.00000    6.95000    6.90000  45870.00000  420.00000    1.22150    1.89700   52.15000  523880.00000  59520.00000    2.56333    2.56643   91.65000    0.00    0.00  154.20000 -999.25000  -999.25000 -999.25000 -999.25000 -999.25000 -999.25000 -999.25000  -999.25000 -999.25000 -999.25000 -999.25000  -999.25000 -999.25000 -999.25000 -999.25000 -999.25000 -999.25000 -999.25000 -999.25000 -999.25000 -999.25000 -999.25000
3136.6  120.00000   35.70000 1860.00000    7.50000    7.00000  47760.00000  420.00000    1.27150    1.89700   56.15000  528920.00000  62400.00000    2.53667    2.53840   82.53333    0.00    0.00  158.16667 -999.25000  -999.25000 -999.25000 -999.25000 -999.25000 -999.25000 -999.25000  -999.25000 -999.25000 -999.25000 -999.25000  -999.25000 -999.25000 -999.25000 -999.25000 -999.25000 -999.25000 -999.25000  303.75000    1.85417    1.85306 -999.25000
3136.8  120.00000   35.70000 1830.00000    7.40000    6.90000  47100.00000  540.00000    1.25400    2.43900   43.60000  569820.00000  71400.00000    2.49000    2.49357   77.20000    0.00    0.00  144.45000 -999.25000  -999.25000 -999.25000 -999.25000 -999.25000 -999.25000 -999.25000  -999.25000 -999.25000 -999.25000 -999.25000  -999.25000 -999.25000 -999.25000 -999.25000 -999.25000 -999.25000 -999.25000  240.00000    1.51429    1.34286 -999.25000
3137.0  180.00000   36.30000 1560.00000    6.30000    7.00000  46620.00000  360.00000    1.24100    1.62600   58.10000  587940.00000  70900.00000    2.52000    2.52209   75.92000    0.00    0.00  149.20000 -999.25000  -999.25000 -999.25000 -999.25000 -999.25000 -999.25000 -999.25000  -999.25000 -999.25000 -999.25000 -999.25000  -999.25000 -999.25000 -999.25000 -999.25000 -999.25000 -999.25000 -999.25000  120.00000    0.75000    0.85000 -999.25000
3137.2  120.00000   36.30000 1380.00000    5.60000    6.70000  45870.00000  300.00000    1.22150    1.35500   71.95000  578880.00000  69900.00000    2.52000    2.52110   78.47500    0.00    0.00  162.80000 -999.25000  -999.25000   -0.01000 -999.25000   -0.01000 -999.25000 -999.25000  -999.25000 -999.25000 -999.25000 -999.25000  -999.25000 -999.25000    1.00000    1.00000 -999.25000 -999.25000 -999.25000  150.00000    0.80000    0.80000   31.84453
3137.4  120.00000   36.20000 1800.00000    7.30000    6.60000  45630.00000  390.00000    1.21500    1.76150   58.90000  586470.00000  68940.00000    2.54000    2.54108   81.76667    0.00    0.00  169.33333   -0.01000  -999.25000   -0.01000 -999.25000   -0.01000 -999.25000   -0.01000  -999.25000   -0.01000 -999.25000   -0.01000  -999.25000    1.00000    1.00000    1.00000    1.00000    1.00000    1.00000  120.00000    0.70000    0.70000   31.77100
3137.6  180.00000   36.20000 1500.00000    6.05000    6.70000  46980.00000  360.00000    1.25100    1.62600   61.80000  558240.00000  63420.00000    2.56000    2.56647   83.75000    0.00    0.00  164.55000   -0.01000  -999.25000   -0.01000 -999.25000   -0.01000 -999.25000   -0.01000  -999.25000   -0.01000 -999.25000   -0.01000  -999.25000    1.00000    1.00000    1.00000    1.00000    1.00000    1.00000  120.00000    0.65000    0.70000   31.77733
3137.8  180.00000   36.30000 1440.00000    5.80000    6.70000  46200.00000  360.00000    1.23000    1.62600   60.80000  572070.00000  71220.00000    2.49500    2.49838   82.50000    0.00    0.00  159.55000   -0.01000  -999.25000   -0.01000 -999.25000   -0.01000 -999.25000   -0.01000  -999.25000   -0.01000 -999.25000   -0.01000  -999.25000    1.00000    1.00000    1.00000    1.00000    1.00000    1.00000   80.00000    0.56667    0.70000   31.74550
3138.0  120.00000   36.20000 1440.00000    5.80000    6.60000  47820.00000  270.00000    1.27300    1.21950   84.90000  588780.00000  74910.00000    2.48000    2.48222   79.80000    0.00    0.00  167.50000   -0.01000  -999.25000   -0.01000 -999.25000   -0.01000 -999.25000   -0.01000  -999.25000   -0.01000 -999.25000   -0.01000  -999.25000    1.00000    1.00000    1.00000    1.00000    1.00000    1.00000  210.00000    1.30000    1.00000   31.56000
3138.2  120.00000   35.70000 1800.00000    7.30000    6.40000  45660.00000  300.00000    1.21600    1.35500   72.00000  582720.00000  74100.00000    2.48000    2.48261   84.00000    0.00    0.00  164.80000   -0.01000  -999.25000   -0.01000 -999.25000   -0.01000 -999.25000   -0.01000  -999.25000   -0.01000 -999.25000   -0.01000  -999.25000    1.00000    1.00000    1.00000    1.00000    1.00000    1.00000  168.00000    1.10000    1.10000   31.73250
3138.4  120.00000   35.95000 1350.00000    5.45000    6.80000  44760.00000  240.00000    1.19200    1.08400   81.60000  589380.00000  76920.00000    2.46000    2.46328   85.05000    0.00    0.00  165.25000   -0.01000  -999.25000   -0.01000 -999.25000   -0.01000 -999.25000   -0.01000  -999.25000   -0.01000 -999.25000   -0.01000  -999.25000    1.00000    1.00000    1.00000    1.00000    1.00000    1.00000   90.00000    0.62500    0.65000   31.77150
3138.6  120.00000   36.40000 1320.00000    5.30000    6.30000  44220.00000  420.00000    1.17800    1.89700   52.70000  597120.00000  69420.00000    2.56000    2.54931   76.05000    0.00    0.00  151.95000   -0.01000  -999.25000   -0.01000 -999.25000   -0.01000 -999.25000   -0.01000  -999.25000   -0.01000 -999.25000   -0.01000  -999.25000    1.00000    1.00000    1.00000    1.00000    1.00000    1.00000  140.00000    0.80000    0.70000   31.79567
3138.8  120.00000   36.30000 2100.00000    8.50000    6.30000  44820.00000  240.00000    1.19300    1.08400   75.80000  537180.00000  32940.00000    3.02000    3.02523   81.20000    0.00    0.00  173.10000   -0.01000  -999.25000   -0.01000 -999.25000   -0.01000 -999.25000   -0.01000  -999.25000   -0.01000 -999.25000   -0.01000  -999.25000    1.00000    1.00000    1.00000    1.00000    1.00000    1.00000  120.00000    0.80000    0.85000   31.86867
3139.0  120.00000   35.70000 1260.00000    5.10000    6.30000  44040.00000  300.00000    1.17250    1.35500   67.35000  296640.00000  39420.00000    2.45000    2.44984   88.10000    0.00    0.00  166.20000   -0.01000  -999.25000   -0.01000 -999.25000   -0.01000 -999.25000   -0.01000  -999.25000   -0.01000 -999.25000   -0.01000  -999.25000    1.00000    1.00000    1.00000    1.00000    1.00000    1.00000  120.00000    0.90000    0.95000   31.56150
3139.2  180.00000   36.10000 1680.00000    6.80000    6.45000  47040.00000  390.00000    1.25250    1.76150   57.20000  392580.00000  47160.00000    2.52000    2.52495   82.60000    0.00    0.00  168.90000   -0.01000  -999.25000   -0.01000 -999.25000   -0.01000 -999.25000   -0.01000  -999.25000   -0.01000 -999.25000   -0.01000  -999.25000    1.00000    1.00000    1.00000    1.00000    1.00000    1.00000  180.00000    1.10000    1.10000   31.87950
