# © ООО НПП ГА «Луч», 2008 - 2018/1.0.349.0.230602/CНГ УБР-1
~VERSION INFORMATION
VERS     .                               2.0:CWLS LAS VERSION
WRAP     .                                NO: One line per depth step
~WELL INFORMATION
#    MNEM.UNIT                     DATA TYPE:INFORMATION
#========.==================================:=========================================
STRT     .M                           3103.4:FIRST DEPTH IN FILE
STOP     .M                             3700:LAST DEPTH IN FILE
STEP     .M                              0.2:DEPTH INCREMENT
NULL     .                           -999.25:NULL VALUES
DATE     .                        13/10/2045:Дата каротажа
DRVD     .                   :Наименование драйвера прибора
SRVC     .                          :Сервисная компания
COMP     .                   :Оператор месторожения
FLD      .                1:Название месторождения
CLST     .                                1:Номер куста
WELL     .                       1:Номер скважины
OPRT     .                          :ФИО оператора
~CURVE INFORMATION
#    MNEM.UNIT                      API CODE:CURVE DESCRIPTION
#========.==================================:=========================================
DEPT     .M                                 :DEPT
SPEE     .M/H                               :Скорость, м/час - 12.326 м.
IPRS     .МПа                               :Давление внутритрубное - 19.116 м.
RGR      .имп/мин                           :Счет интегрального ГК, имп/мин - 14.601 м.
GR       .мкР/ч                             :Естественная гамма-активность, мкР/ч - 14.601 м.
GR_AVG   .мкР/ч                             :Естественная гамма-активность, мкР/ч - 14.601 м.
RNTN     .имп/мин                           :Счет по каналу малого зонда ННКт, имп./мин. - 11.506 м.
RFTN     .имп/мин                           :Счет по каналу большого зонда ННКт,  имп./мин. - 11.506 м.
NTNL     .у.е.                              :Малый зонд ННКт, у.е. - 11.506 м.
FTNL     .у.е.                              :Большой зонд ННКт, у.е. - 11.506 м.
TRNP     .%                                 :Кажущиеся пористость по ННКТ KNNA+KNNB*A+KNNC*A*A, где A=NTNL/FTNL., % - 11.506 м.
RSDL     .имп/мин                           :Счёт, ближний зонд ГГКП, имп/мин - 10.766 м.
RLDL     .имп/мин                           :Счёт, дальний зонд ГГКП, имп/мин - 10.766 м.
RHOB     .г/см3                             :Плотность, г/см3 - 10.766 м.
RHOB_POST.g/cm3                             :Плотность, г/см3 - 10.766 м.
RAD1     .мм                                :Радиус 1 профилемера, мм - 10.283 м.
RAD2     .мм                                :Радиус 2 профилемера, мм - 10.283 м.
RAD3     .мм                                :Радиус 3 профилемера, мм - 10.283 м.
CALI     .мм                                :Диаметр скважины, мм - 10.283 м.
PHL      .град                              :Разность фаз по зонду И 0.35 И 1.05 Г L=1.4м 0.88МГц, град - 8.154 м.
ROPL     .Омм                               :Кажущееся сопротивление зонда И 0.35 И 1.05 Г, L=1.4м 0.88МГц, Омм - 8.154 м.
PHH      .град                              :Разность фаз по зонду И 0.175 И 0.525 Г,  L=0.7м 3.505МГц, град - 8.504 м.
ROPH     .Омм                               :Кажущееся сопротивление зонда И 0.175 И 0.525 Г, L=0.7м 3.505МГц, Омм - 8.504 м.
PHLD     .град                              :Разность фаз по зонду И 0.175 И 0.875 Г, L=1.05м 0.88МГц, град - 8.504 м.
ROPLD    .Омм                               :Кажущееся сопротивление зонда И 0.175 И 0.875 Г, L=1.05м 0.88МГц, Омм - 8.504 м.
PHHD     .град                              :Разность фаз по зонду И 0.35 И 0.7 Г, L=1.05м 3.505МГц, град - 8.154 м.
ROPHD    .Омм                               :Кажущееся сопротивление зонда И 0.35 И 0.7 Г, L=1.05м 3.505МГц, Омм - 8.154 м.
PHLE     .град                              :Разность фаз по зонду И 0.525 И 0.875 Г, L=1.4м 0.88МГц, град - 8.154 м.
ROPLE    .Омм                               :Кажущееся сопротивление зонда И 0.525 И 0.875 Г, L=1.4м 0.88МГц, Омм - 8.154 м.
PHHE     .град                              :Разность фаз по зонду И 0.525 И 0.525 Г, L=1.05м 3.505МГц, град - 8.154 м.
ROPHE    .Омм                               :Кажущееся сопротивление зонда И 0.525 И 0.525 Г, L=1.05м 3.505МГц, Омм - 8.154 м.
AL       .                                  :Отношение амплитуд, зонд И 0.35 И 1.05 Г, L=1.4м 0.88МГц, отношение амплитуд - 8.154 м.
AH       .                                  :Отношение амплитуд, зонд И 0.175 И 0.525 Г, L=0.7м 3.505МГц, отношение амплитуд - 8.504 м.
ALD      .                                  :Отношение амплитуд, зонд И 0.175 И 0.875 Г,  L=1.05м 0.88МГц, отношение амплитуд - 8.504 м.
AHD      .                                  :Отношение амплитуд, зонд И 0.35 И 0.7 Г, L=1.05м 3.505МГц, отношение амплитуд - 8.154 м.
ALE      .                                  :Отношение амплитуд, зонд И 0.525 И 0.875 Г, L=1.4м 0.88МГц, отношение амплитуд - 8.154 м.
AHE      .                                  :Отношение амплитуд, зонд И 0.525 И 0.525 Г, L=1.05м 3.505МГц, отношение амплитуд - 8.154 м.
RGR_VIKPB.имп/мин                           :Счет интегрального ГК, имп/мин - 9.049 м.
GR_VIKPB .мкР/ч                             :Естественная гамма-активность, мкР/ч - 9.049 м.
GR_AVG_VIKPB.мкР/ч                             :Естественная гамма-активность, мкР/ч - 9.049 м.
OPRS     .МПа                               :Давление затрубное - 8.337 м.
~PARAMETER INFORMATION BLOCK
#    MNEM.UNIT                      API CODE:CURVE DESCRIPTION
#========.==================================:=========================================

~OTHER INFORMATION


~A           SPEE       IPRS        RGR         GR     GR_AVG         RNTN       RFTN       NTNL       FTNL       TRNP          RSDL         RLDL       RHOB  RHOB_POST       RAD1    RAD2    RAD3       CALI        PHL        ROPL        PHH       ROPH       PHLD      ROPLD       PHHD       ROPHD       PHLE      ROPLE       PHHE       ROPHE         AL         AH        ALD        AHD        ALE        AHE  RGR_VIKPB   GR_VIKPB _AVG_VIKPB       OPRS
# ...
3650.6   21.17647   41.90000 2352.00000    9.50000   10.56000 108190.00000 1240.00000    2.88083    5.60067   42.10000 1688880.00000 242355.00000    2.39125    2.39268   69.27143    0.00    0.00  137.77143    1.80750    71.16475    2.32000   53.04600    0.66250   83.30125    5.26750    59.35975    2.53250   71.01425    7.80750    55.26875    0.98500    1.01075    1.00875    0.96825    0.99450    0.97600 1220.00000    7.51667    7.22857   36.53320
3650.8   22.50000   42.53333 2802.85714   11.32857   11.21667 107485.71429 1320.00000    2.86229    5.96200   39.92857 1628085.00000 231750.00000    2.39750    2.39870   68.18750    0.00    0.00  135.30000    1.96800    64.44300    2.87333   41.49900    0.80333   67.16250    5.75200    53.12480    2.69600   66.01080    8.21000    51.99420    0.98560    1.00933    1.00933    0.96800    0.99380    0.97620 1080.00000    6.64286    6.85000   36.52625
3651.0   27.69231   43.10000 3020.00000   12.21667   11.28571 105274.28571 1277.14286    2.80329    5.76843   41.12857 1627087.50000 228735.00000    2.40625    2.40798   69.16250    0.00    0.00  136.83750    1.89750    67.36950    1.98571   64.90671    0.62143   89.74657    5.47250    56.59325    2.56250   70.05925    7.78250    55.54975    0.98450    1.00900    1.00900    0.96850    0.99325    0.97775 1230.00000    7.60000    7.56000   36.58063
3651.2   40.00000   43.23333 2505.00000   10.12500   10.51250 103266.66667 1460.00000    2.75000    6.59433   37.21111 1653210.00000 236220.00000    2.39500    2.39588   65.85000    0.00    0.00  134.40000    1.84000    69.84800    2.59143   46.56457    0.75429   71.73314    5.23250    60.16813    2.59250   69.10350    7.95000    54.06338    0.98513    1.00900    1.00914    0.96575    0.99350    0.97425 1206.00000    7.45000    7.44000   36.59943
3651.4   32.72727   42.39167 2350.00000    9.51667   10.16667 103657.50000 1177.50000    2.76025    5.31838   43.21250 1632170.00000 231430.00000    2.40000    2.40159   68.80000    0.00    0.00  135.51429    1.98857    63.70900    2.41429   50.38343    0.73714   73.38143    5.78714    52.66743    2.55857   70.29071    7.82571    55.25929    0.98529    1.00886    1.00829    0.96571    0.99414    0.97386 1146.00000    7.06000    7.10000   36.48580
3651.6   32.72727   41.68000 2360.00000    9.53333    9.90000 102900.00000 1110.00000    2.74013    5.01350   45.26250 1679520.00000 242957.14286    2.38429    2.38670   68.72000    0.00    0.00  136.32000    1.99000    63.64600    2.65700   45.20950    0.80200   67.17240    5.76600    52.91060    2.72600   65.11900    8.48000    49.84360    0.98520    1.00780    1.00880    0.96420    0.99420    0.97160 1185.00000    7.32500    7.26000   36.57614
3651.8   32.72727   42.65000 2460.00000    9.97500   10.00000  99390.00000 1020.00000    2.64650    4.60700   48.00000 1691266.66667 254646.66667    2.35333    2.35693   65.18333    0.00    0.00  133.43333    2.12273    58.98782    2.76556   42.93189    0.80444   66.51422    6.19909    48.17327    2.80636   62.88673    8.64364    48.65409    0.98555    1.00656    1.00856    0.96282    0.99409    0.97036 1140.00000    7.00000    6.96667   36.56350
3652.0   30.00000   42.74286 2360.00000    9.53333    9.86250 102900.00000 1208.57143    2.73986    5.45871   41.80000 1732792.50000 273000.00000    2.32000    2.32320   64.85000    0.00    0.00  129.07500    2.16000    57.73700    2.85900   41.15010    0.85100   62.54490    6.32167    46.94450    2.97000   58.77233    9.15667    45.21633    0.98500    1.00640    1.00820    0.96050    0.99417    0.96700 1152.00000    7.16000    7.40000   36.58846
3652.2   40.00000   42.82500 2232.00000    9.02000    9.64000 102465.00000 1087.50000    2.72838    4.91188   46.62500 1812660.00000 299040.00000    2.28667    2.28894   68.59000    0.00    0.00  136.16000    2.54077    48.52138    4.22000   28.13300    1.22000   44.83020    7.79077    36.77092    3.33769   51.44477   10.56692    38.10085    0.98477    1.00480    1.00780    0.95946    0.99323    0.96469 1102.50000    6.81250    6.56250   36.51386
3652.4   40.00000   42.70000 2254.28571    9.11429    8.88571  99420.00000 1020.00000    2.64733    4.60700   46.90000 1885785.00000 296220.00000    2.32500    2.32541   69.04444    0.00    0.00  135.13333    2.30429    53.56886    2.66667  155.59167    0.77667  131.31833    6.90429    42.06086    3.17429   54.27143    9.90571    40.92100    0.98457    1.00650    1.00900    0.96014    0.99286    0.96571 1105.71429    6.75714    6.76250   36.57300
3652.6   21.17647   42.63333 2160.00000    8.76000    8.83333  98662.50000 1140.00000    2.62713    5.14900   42.72500 1792810.00000 281580.00000    2.32833    2.32551   65.08571    0.00    0.00  133.01429    1.82000    72.33967    2.37833   57.40550    0.74500   77.75167    4.98000    67.95067    3.12333   55.31733    9.70000    42.05550    0.98583    1.00750    1.00933    0.96267    0.99350    0.96550  960.00000    5.95000    6.40000   36.53600
3652.8   22.50000   42.72000 2304.00000    9.30000    9.32000  98760.00000 1095.00000    2.62975    4.94575   44.07500 1751100.00000 278200.00000    2.31667    2.31698   65.00000    0.00    0.00  131.08571    1.90250    67.14325    1.94750   85.22088    0.60875  103.99813    5.41250    57.87550    2.37000   79.49500    6.89500    69.05925    0.98525    1.01188    1.00925    0.96425    0.99475    0.97100 1100.00000    6.75000    6.55714   36.58071
3653.0   36.00000   42.85000 2362.50000    9.52500    9.85000 100392.00000 1308.00000    2.67320    5.90780   37.22000 1740142.50000 268605.00000    2.33750    2.33842   66.00000    0.00    0.00  125.47500    1.74750    74.68175    2.21250   58.84550    0.73500   75.18050    4.76125    68.51863    2.52250   71.47825    7.38000    59.55225    0.98588    1.01150    1.00925    0.96900    0.99450    0.97500 1128.00000    6.92000    6.97500   36.60029
3653.2   22.50000   42.27500 2330.00000    9.41667    9.43333 105120.00000 1245.00000    2.79900    5.62325   41.02500 1675722.85714 256834.28571    2.34000    2.34369   66.48571    0.00    0.00  133.80000    2.08750    60.49075    2.74000   43.33429    0.82714   64.39671    5.99375    50.85250    2.61875   68.39250    7.65250    56.94963    0.98513    1.00857    1.00900    0.96338    0.99475    0.97550 1028.57143    6.32857    6.31250   36.50967
3653.4   25.71429   42.48000 2004.00000    8.10000    9.55000 104049.23077 1329.23077    2.77069    6.00369   38.83077 1741500.00000 270510.00000    2.33250    2.33374   70.36250    0.00    0.00  136.58750    2.19250    56.71325    2.79400   42.28420    0.83200   64.16400    6.42250    46.05800    2.98000   58.54825    9.02750    46.08025    0.98525    1.00700    1.00840    0.96175    0.99400    0.97100 1080.00000    6.65000    6.84000   36.55740
3653.6   32.72727   42.28333 2305.71429    9.31429    9.71250 105640.00000 1600.00000    2.81300    7.22667   33.00000 1736835.00000 269040.00000    2.33250    2.33580   46.80000    0.00    0.00  119.46667    2.26500    54.65250    2.95667   39.48450    0.88167   60.08950    6.66375    43.90188    3.09500   55.92588    9.45500    43.43400    0.98438    1.00517    1.00733    0.95875    0.99325    0.96525 1220.00000    7.43333    7.48000   36.56650
3653.8   30.00000   42.13333 2446.66667    9.90000    9.35556 102360.00000 1208.57143    2.72557    5.45871   41.98571 1794137.14286 289560.00000    2.30429    2.30527   68.14000    0.00    0.00  138.14000    2.36333    51.87733    3.17857   36.13671    0.92571   56.77871    6.91667    41.73667    3.16333   54.42900    9.73667    41.77033    0.98500    1.00443    1.00700    0.95900    0.99233    0.96400 1060.00000    6.51111    6.51111   36.58750
3654.0   36.00000   42.80000 2292.00000    9.28000    9.30000 102480.00000 1488.00000    2.72880    6.72080   34.88000 1754452.50000 282960.00000    2.30500    2.30578   64.97143    0.00    0.00  132.80000    2.44667    49.89067    3.08429   41.07400    0.94143   59.02443    7.18167    39.82617    3.35667   50.66533   10.20000    39.38017    0.98467    1.00414    1.00771    0.95850    0.99217    0.96233 1095.00000    6.67500    6.65000   36.56217
