# © ООО НПП ГА «Луч», 2008 - 2018/1.0.349.0.230602/CНГ УБР-1
~VERSION INFORMATION
VERS     .                               2.0:CWLS LAS VERSION
WRAP     .                                NO: One line per depth step
~WELL INFORMATION
#    MNEM.UNIT                     DATA TYPE:INFORMATION
#========.==================================:=========================================
STRT     .M                           3103.4:FIRST DEPTH IN FILE
STOP     .M                             3700:LAST DEPTH IN FILE
STEP     .M                              0.2:DEPTH INCREMENT
NULL     .                           -999.25:NULL VALUES
DATE     .                        13/10/2045:Дата каротажа
DRVD     .                   :Наименование драйвера прибора
SRVC     .                          :Сервисная компания
COMP     .                   :Оператор месторожения
FLD      .                1:Название месторождения
CLST     .                                1:Номер куста
WELL     .                       1:Номер скважины
OPRT     .                          :ФИО оператора
~CURVE INFORMATION
#    MNEM.UNIT                      API CODE:CURVE DESCRIPTION
#========.==================================:=========================================
DEPT     .M                                 :DEPT
SPEE     .M/H                               :Скорость, м/час - 12.326 м.
IPRS     .МПа                               :Давление внутритрубное - 19.116 м.
RGR      .имп/мин                           :Счет интегрального ГК, имп/мин - 14.601 м.
GR       .мкР/ч                             :Естественная гамма-активность, мкР/ч - 14.601 м.
GR_AVG   .мкР/ч                             :Естественная гамма-активность, мкР/ч - 14.601 м.
RNTN     .имп/мин                           :Счет по каналу малого зонда ННКт, имп./мин. - 11.506 м.
RFTN     .имп/мин                           :Счет по каналу большого зонда ННКт,  имп./мин. - 11.506 м.
NTNL     .у.е.                              :Малый зонд ННКт, у.е. - 11.506 м.
FTNL     .у.е.                              :Большой зонд ННКт, у.е. - 11.506 м.
TRNP     .%                                 :Кажущиеся пористость по ННКТ KNNA+KNNB*A+KNNC*A*A, где A=NTNL/FTNL., % - 11.506 м.
RSDL     .имп/мин                           :Счёт, ближний зонд ГГКП, имп/мин - 10.766 м.
RLDL     .имп/мин                           :Счёт, дальний зонд ГГКП, имп/мин - 10.766 м.
RHOB     .г/см3                             :Плотность, г/см3 - 10.766 м.
RHOB_POST.g/cm3                             :Плотность, г/см3 - 10.766 м.
RAD1     .мм                                :Радиус 1 профилемера, мм - 10.283 м.
RAD2     .мм                                :Радиус 2 профилемера, мм - 10.283 м.
RAD3     .мм                                :Радиус 3 профилемера, мм - 10.283 м.
CALI     .мм                                :Диаметр скважины, мм - 10.283 м.
PHL      .град                              :Разность фаз по зонду И 0.35 И 1.05 Г L=1.4м 0.88МГц, град - 8.154 м.
ROPL     .Омм                               :Кажущееся сопротивление зонда И 0.35 И 1.05 Г, L=1.4м 0.88МГц, Омм - 8.154 м.
PHH      .град                              :Разность фаз по зонду И 0.175 И 0.525 Г,  L=0.7м 3.505МГц, град - 8.504 м.
ROPH     .Омм                               :Кажущееся сопротивление зонда И 0.175 И 0.525 Г, L=0.7м 3.505МГц, Омм - 8.504 м.
PHLD     .град                              :Разность фаз по зонду И 0.175 И 0.875 Г, L=1.05м 0.88МГц, град - 8.504 м.
ROPLD    .Омм                               :Кажущееся сопротивление зонда И 0.175 И 0.875 Г, L=1.05м 0.88МГц, Омм - 8.504 м.
PHHD     .град                              :Разность фаз по зонду И 0.35 И 0.7 Г, L=1.05м 3.505МГц, град - 8.154 м.
ROPHD    .Омм                               :Кажущееся сопротивление зонда И 0.35 И 0.7 Г, L=1.05м 3.505МГц, Омм - 8.154 м.
PHLE     .град                              :Разность фаз по зонду И 0.525 И 0.875 Г, L=1.4м 0.88МГц, град - 8.154 м.
ROPLE    .Омм                               :Кажущееся сопротивление зонда И 0.525 И 0.875 Г, L=1.4м 0.88МГц, Омм - 8.154 м.
PHHE     .град                              :Разность фаз по зонду И 0.525 И 0.525 Г, L=1.05м 3.505МГц, град - 8.154 м.
ROPHE    .Омм                               :Кажущееся сопротивление зонда И 0.525 И 0.525 Г, L=1.05м 3.505МГц, Омм - 8.154 м.
AL       .                                  :Отношение амплитуд, зонд И 0.35 И 1.05 Г, L=1.4м 0.88МГц, отношение амплитуд - 8.154 м.
AH       .                                  :Отношение амплитуд, зонд И 0.175 И 0.525 Г, L=0.7м 3.505МГц, отношение амплитуд - 8.504 м.
ALD      .                                  :Отношение амплитуд, зонд И 0.175 И 0.875 Г,  L=1.05м 0.88МГц, отношение амплитуд - 8.504 м.
AHD      .                                  :Отношение амплитуд, зонд И 0.35 И 0.7 Г, L=1.05м 3.505МГц, отношение амплитуд - 8.154 м.
ALE      .                                  :Отношение амплитуд, зонд И 0.525 И 0.875 Г, L=1.4м 0.88МГц, отношение амплитуд - 8.154 м.
AHE      .                                  :Отношение амплитуд, зонд И 0.525 И 0.525 Г, L=1.05м 3.505МГц, отношение амплитуд - 8.154 м.
RGR_VIKPB.имп/мин                           :Счет интегрального ГК, имп/мин - 9.049 м.
GR_VIKPB .мкР/ч                             :Естественная гамма-активность, мкР/ч - 9.049 м.
GR_AVG_VIKPB.мкР/ч                             :Естественная гамма-активность, мкР/ч - 9.049 м.
OPRS     .МПа                               :Давление затрубное - 8.337 м.
~PARAMETER INFORMATION BLOCK
#    MNEM.UNIT                      API CODE:CURVE DESCRIPTION
#========.==================================:=========================================

~OTHER INFORMATION


~A           SPEE       IPRS        RGR         GR     GR_AVG         RNTN       RFTN       NTNL       FTNL       TRNP          RSDL         RLDL       RHOB  RHOB_POST       RAD1    RAD2    RAD3       CALI        PHL        ROPL        PHH       ROPH       PHLD      ROPLD       PHHD       ROPHD       PHLE      ROPLE       PHHE       ROPHE         AL         AH        ALD        AHD        ALE        AHE  RGR_VIKPB   GR_VIKPB _AVG_VIKPB       OPRS
# ...
3355.4    6.79245   39.85000 2565.00000   10.37500   12.14000  91420.00000 1060.00000    2.43433    4.78767   42.81667 1574160.00000 216780.00000    2.42500    2.42332   66.13333    0.00    0.00  133.93333    2.80000    42.26300    3.30333   36.73133    0.96667   56.36433    8.39000    32.21700    2.87000   61.19300    8.60000    48.93100    0.98100    1.01400    1.01100    0.97200    0.99300    0.98900 1777.50000   10.88750   10.77500   34.73833
3355.6   45.00000   40.38750 4483.63636   18.14318   17.90930  94492.50000 1140.00000    2.51613    5.14900   41.20000 1687350.00000 234650.00000    2.41333    2.41605   68.22000    0.00    0.00  137.40000    2.98333    39.35500    4.26800   25.21500    1.22800   41.26640    9.35333    28.03733    3.47333   49.29300   10.90000    36.92000    0.98233    1.01260    1.00980    0.97067    0.99233    0.98533 1665.00000   10.17500   10.26000   34.84400
3355.8   22.50000   41.40000 3780.00000   15.30000   15.15000  95048.57143  900.00000    2.53086    4.06500   50.17143 1630277.14286 206237.14286    2.48286    2.48647   59.86667    0.00    0.00  126.80000    2.61667    46.58900    2.97667   44.37200    0.87167   68.38783    8.15333    34.27600    3.80667   43.45167   12.29000    30.85333    0.98100    1.01417    1.01033    0.97367    0.99133    0.98467 1789.47368   10.98596   10.99643   34.98075
3356.0   25.71429   40.68571 3720.00000   15.00000   14.10000  95944.70588  949.41176    2.55486    4.28818   49.23922 1545780.00000 200860.00000    2.46333    2.46653   63.41667    0.00    0.00  130.41667    2.32600    53.21860    3.69143   29.89786    1.05714   48.72786    6.86600    42.57300    3.50600   48.13000   11.03400    35.62860    0.98140    1.01357    1.01029    0.97440    0.99180    0.98680 1380.00000    8.60000   10.10000   35.01417
3356.2   30.00000   40.61429 3100.00000   12.54444   13.05000  94590.00000 1170.00000    2.51900    5.28450   39.60000 1575000.00000 200880.00000    2.47500    2.48039   62.71667    0.00    0.00  122.28333    2.52000    48.07520    3.74000   29.39350    1.08500   47.19600    7.85600    35.25820    3.37000   50.56960   10.62000    37.49020    0.98240    1.01200    1.01100    0.97380    0.99260    0.98680 1665.00000   10.22500   10.30000   34.95200
3356.4   30.00000   40.80000 3160.00000   12.78333   12.72857  97850.00000 1020.00000    2.60550    4.60700   46.31667 1532347.50000 190012.50000    2.49875    2.50134   65.01429    0.00    0.00  131.85714    2.58500    46.58363    3.88193   28.16521    1.11000   46.21612    7.85125    35.25738    3.61625   46.21938   11.58875    33.28200    0.98213    1.01202    1.01007    0.97300    0.99200    0.98488 1788.00000   11.02000   10.70000   34.91733
3356.6   36.00000   40.38333 2895.65217   11.69783   11.91957  98700.00000 1170.00000    2.62813    5.28450   41.80000 1517228.57143 180531.42857    2.53143    2.53205   66.85000    0.00    0.00  137.13333    2.61250    46.03307    3.77000   29.09100    1.13000   45.02900    7.99554    34.44691    3.71929   44.64138   11.91411    32.08857    0.98221    1.01300    1.01000    0.97134    0.99200    0.98225 1512.00000    9.36000    9.50000   35.02655
3356.8   40.00000   39.93333 2700.00000   10.91667   11.57500  97894.28571 1148.57143    2.60686    5.18771   41.31429 1459028.23529 174489.41176    2.52882    2.52827   70.86250    0.00    0.00  132.90000    2.57000    46.92350    3.73800   29.42000    1.07600   47.74340    7.72000    36.04200    3.71000   44.76950   11.73500    32.72800    0.98200    1.01220    1.01080    0.97200    0.99300    0.98200 1590.00000    9.75000   10.20000   34.76250
3357.0   40.00000   40.00000 2370.00000    9.57500   10.71250  98254.28571 1174.28571    2.61643    5.30386   40.62857 1444110.00000 167160.00000    2.55000    2.55255   68.41429    0.00    0.00  133.87143    2.70500    44.07950    3.52250   31.76550    1.02000   50.92025    8.07500    33.96050    3.77500   43.82650   11.94000    32.00650    0.98300    1.01275    1.01050    0.97250    0.99250    0.98450 1850.00000   11.35000   11.36667   34.94825
3357.2   36.00000   38.35000 2390.00000    9.66667   10.53333  97980.00000  996.00000    2.60900    4.49860   47.74000 1543755.00000 190642.50000    2.50500    2.50440   67.27843    0.00    0.00  135.42353    2.77000    42.89000    4.46667   23.69167    1.26833   39.80367    8.58250    31.32750    3.84000   42.91375   12.31750    30.72650    0.98125    1.01133    1.01017    0.96950    0.99175    0.98050 1790.00000   10.98333   10.81667   34.91560
3357.4   36.00000   38.80000 2406.00000    9.72000   10.08889  97044.00000 1128.00000    2.58400    5.09480   41.98000 1518486.00000 188982.00000    2.49800    2.49863   63.25000    0.00    0.00  129.40000    2.75600    43.25680    2.92333   41.00383    0.88000   61.83033    8.55600    31.63440    3.83400   43.03320   12.25000    30.96600    0.98140    1.01383    1.01100    0.97200    0.99200    0.98280 1834.28571   11.30000   11.41667   34.90580
3357.6   45.00000   39.74000 2452.50000    9.90000   10.14000  95490.00000 1035.00000    2.54275    4.67475   44.22500 1528880.00000 194470.00000    2.48167    2.48240   64.16667    0.00    0.00  131.33333    2.37500    51.82000    3.35200   33.77020    0.99200   52.47680    7.02833    40.98583    3.59833   46.58650   11.35333    34.28517    0.98283    1.01280    1.00960    0.97383    0.99267    0.98433 1740.00000   10.64286   10.74286   34.99817
3357.8    7.50000   39.66429 2374.28571    9.61429   10.10000  95244.00000  936.00000    2.53620    4.22760   48.32000 1582980.00000 195900.00000    2.50000    2.50282   65.74000    0.00    0.00  130.46000    2.49000    48.77540    3.46667   32.36100    1.00000   51.91033    7.54600    37.26800    3.32200   51.29760   10.43600    38.18620    0.98140    1.01300    1.01000    0.97280    0.99240    0.98500 1812.00000   11.14000   11.01667   34.99400
3358.0    7.82609   40.07500 2513.33333   10.15556   10.12222  97095.00000  990.00000    2.58550    4.47150   46.62500 1566930.00000 190730.00000    2.51167    2.51514   65.72857    0.00    0.00  129.41429    2.36667    51.83900    3.20167   35.76450    0.92500   56.72367    7.33000    38.74483    3.35167   50.73633   10.59333    37.44667    0.98267    1.01450    1.01050    0.97567    0.99233    0.98550 1710.00000   10.52500   10.64286   34.99200
3358.2   90.00000   40.70000 2637.85714   10.65714   10.41786  99060.00000  924.00000    2.63780    4.17340   51.26000 1662840.00000 200040.00000    2.52250    2.52388   66.10000    0.00    0.00  130.54286    2.37000    51.76017    3.42571   32.87014    0.96714   54.14729    7.12333    40.21050    3.29000   51.96400   10.47667    38.05250    0.98283    1.01443    1.00971    0.97617    0.99200    0.98900 1328.57143    8.20000    7.57500   35.07783
3358.4   40.00000   40.01429 2516.00000   10.17667   10.48667  99980.00000 1100.00000    2.66233    4.96833   44.50000 1584972.00000 181236.00000    2.56000    2.56165   66.13333    0.00    0.00  136.28333    2.34200    52.42780    3.33833   34.01567    0.93333   56.83067    7.15400    39.93500    3.30200   51.71360   10.58600    37.52560    0.98220    1.01217    1.01017    0.97200    0.99220    0.98640 1392.69231    8.55577    8.63922   34.98060
3358.6   27.69231   40.53333 2626.66667   10.62222   10.56111  98700.00000 1104.00000    2.62820    4.98640   44.06000 1483608.00000 175968.00000    2.53400    2.53442   67.82500    0.00    0.00  137.00000    2.50400    48.42920    3.36500   33.68238    1.00000   52.39713    7.64800    36.52060    3.44000   49.14000   11.01400    35.58480    0.98260    1.01225    1.00900    0.97240    0.99240    0.98560 1740.00000   10.60000   11.20000   35.02317
3358.8   30.00000   40.80000 2802.85714   11.34286   11.61429  93522.85714  941.42857    2.49033    4.25212   48.18095 1498755.00000 181335.00000    2.51750    2.51963   68.18000    0.00    0.00  136.46000    2.55167    47.31117    3.64286   30.51157    1.11429   46.97871    7.81833    35.44900    3.31333   52.59733   11.27167    34.53633    0.98200    1.01271    1.01257    0.97133    0.99317    0.98200 1940.00000   11.96667   11.80000   34.99238
