# © ООО НПП ГА «Луч», 2008 - 2018/1.0.349.0.230602/CНГ УБР-1
~VERSION INFORMATION
VERS     .                               2.0:CWLS LAS VERSION
WRAP     .                                NO: One line per depth step
~WELL INFORMATION
#    MNEM.UNIT                     DATA TYPE:INFORMATION
#========.==================================:=========================================
STRT     .M                           3103.4:FIRST DEPTH IN FILE
STOP     .M                             3700:LAST DEPTH IN FILE
STEP     .M                              0.2:DEPTH INCREMENT
NULL     .                           -999.25:NULL VALUES
DATE     .                        13/10/2045:Дата каротажа
DRVD     .                   :Наименование драйвера прибора
SRVC     .                          :Сервисная компания
COMP     .                   :Оператор месторожения
FLD      .                1:Название месторождения
CLST     .                                1:Номер куста
WELL     .                       1:Номер скважины
OPRT     .                          :ФИО оператора
~CURVE INFORMATION
#    MNEM.UNIT                      API CODE:CURVE DESCRIPTION
#========.==================================:=========================================
DEPT     .M                                 :DEPT
SPEE     .M/H                               :Скорость, м/час - 12.326 м.
IPRS     .МПа                               :Давление внутритрубное - 19.116 м.
RGR      .имп/мин                           :Счет интегрального ГК, имп/мин - 14.601 м.
GR       .мкР/ч                             :Естественная гамма-активность, мкР/ч - 14.601 м.
GR_AVG   .мкР/ч                             :Естественная гамма-активность, мкР/ч - 14.601 м.
RNTN     .имп/мин                           :Счет по каналу малого зонда ННКт, имп./мин. - 11.506 м.
RFTN     .имп/мин                           :Счет по каналу большого зонда ННКт,  имп./мин. - 11.506 м.
NTNL     .у.е.                              :Малый зонд ННКт, у.е. - 11.506 м.
FTNL     .у.е.                              :Большой зонд ННКт, у.е. - 11.506 м.
TRNP     .%                                 :Кажущиеся пористость по ННКТ KNNA+KNNB*A+KNNC*A*A, где A=NTNL/FTNL., % - 11.506 м.
RSDL     .имп/мин                           :Счёт, ближний зонд ГГКП, имп/мин - 10.766 м.
RLDL     .имп/мин                           :Счёт, дальний зонд ГГКП, имп/мин - 10.766 м.
RHOB     .г/см3                             :Плотность, г/см3 - 10.766 м.
RHOB_POST.g/cm3                             :Плотность, г/см3 - 10.766 м.
RAD1     .мм                                :Радиус 1 профилемера, мм - 10.283 м.
RAD2     .мм                                :Радиус 2 профилемера, мм - 10.283 м.
RAD3     .мм                                :Радиус 3 профилемера, мм - 10.283 м.
CALI     .мм                                :Диаметр скважины, мм - 10.283 м.
PHL      .град                              :Разность фаз по зонду И 0.35 И 1.05 Г L=1.4м 0.88МГц, град - 8.154 м.
ROPL     .Омм                               :Кажущееся сопротивление зонда И 0.35 И 1.05 Г, L=1.4м 0.88МГц, Омм - 8.154 м.
PHH      .град                              :Разность фаз по зонду И 0.175 И 0.525 Г,  L=0.7м 3.505МГц, град - 8.504 м.
ROPH     .Омм                               :Кажущееся сопротивление зонда И 0.175 И 0.525 Г, L=0.7м 3.505МГц, Омм - 8.504 м.
PHLD     .град                              :Разность фаз по зонду И 0.175 И 0.875 Г, L=1.05м 0.88МГц, град - 8.504 м.
ROPLD    .Омм                               :Кажущееся сопротивление зонда И 0.175 И 0.875 Г, L=1.05м 0.88МГц, Омм - 8.504 м.
PHHD     .град                              :Разность фаз по зонду И 0.35 И 0.7 Г, L=1.05м 3.505МГц, град - 8.154 м.
ROPHD    .Омм                               :Кажущееся сопротивление зонда И 0.35 И 0.7 Г, L=1.05м 3.505МГц, Омм - 8.154 м.
PHLE     .град                              :Разность фаз по зонду И 0.525 И 0.875 Г, L=1.4м 0.88МГц, град - 8.154 м.
ROPLE    .Омм                               :Кажущееся сопротивление зонда И 0.525 И 0.875 Г, L=1.4м 0.88МГц, Омм - 8.154 м.
PHHE     .град                              :Разность фаз по зонду И 0.525 И 0.525 Г, L=1.05м 3.505МГц, град - 8.154 м.
ROPHE    .Омм                               :Кажущееся сопротивление зонда И 0.525 И 0.525 Г, L=1.05м 3.505МГц, Омм - 8.154 м.
AL       .                                  :Отношение амплитуд, зонд И 0.35 И 1.05 Г, L=1.4м 0.88МГц, отношение амплитуд - 8.154 м.
AH       .                                  :Отношение амплитуд, зонд И 0.175 И 0.525 Г, L=0.7м 3.505МГц, отношение амплитуд - 8.504 м.
ALD      .                                  :Отношение амплитуд, зонд И 0.175 И 0.875 Г,  L=1.05м 0.88МГц, отношение амплитуд - 8.504 м.
AHD      .                                  :Отношение амплитуд, зонд И 0.35 И 0.7 Г, L=1.05м 3.505МГц, отношение амплитуд - 8.154 м.
ALE      .                                  :Отношение амплитуд, зонд И 0.525 И 0.875 Г, L=1.4м 0.88МГц, отношение амплитуд - 8.154 м.
AHE      .                                  :Отношение амплитуд, зонд И 0.525 И 0.525 Г, L=1.05м 3.505МГц, отношение амплитуд - 8.154 м.
RGR_VIKPB.имп/мин                           :Счет интегрального ГК, имп/мин - 9.049 м.
GR_VIKPB .мкР/ч                             :Естественная гамма-активность, мкР/ч - 9.049 м.
GR_AVG_VIKPB.мкР/ч                             :Естественная гамма-активность, мкР/ч - 9.049 м.
OPRS     .МПа                               :Давление затрубное - 8.337 м.
~PARAMETER INFORMATION BLOCK
#    MNEM.UNIT                      API CODE:CURVE DESCRIPTION
#========.==================================:=========================================

~OTHER INFORMATION


~A           SPEE       IPRS        RGR         GR     GR_AVG         RNTN       RFTN       NTNL       FTNL       TRNP          RSDL         RLDL       RHOB  RHOB_POST       RAD1    RAD2    RAD3       CALI        PHL        ROPL        PHH       ROPH       PHLD      ROPLD       PHHD       ROPHD       PHLE      ROPLE       PHHE       ROPHE         AL         AH        ALD        AHD        ALE        AHE  RGR_VIKPB   GR_VIKPB _AVG_VIKPB       OPRS
# ...
3247.4   60.00000   38.47500 1960.00000    7.93333    6.82500  95100.00000 1240.00000    2.53233    5.60067   37.66667 1810512.00000 279276.00000    2.33800    2.33893   69.12500    0.00    0.00  136.32500    1.60222    82.52311    2.89545   42.43400    0.72455   77.64264    5.82222    52.82078    1.74889  109.63222    6.43889    70.70822    0.98278    1.01727    1.01309    0.98856    0.99556    1.00733  913.33333    5.62778    5.58947   33.89607
3247.6   32.72727   39.41667 1845.00000    7.50000    7.02500  93127.69231 1173.84615    2.47992    5.30187   39.62564 1725160.00000 261600.00000    2.34667    2.35165   71.27500    0.00    0.00  138.07500    0.85214   175.43843    3.67300   31.89210    0.90800   61.57810    2.89786   131.40593    1.21786  163.71093    4.33643   112.99993    0.98300    1.01490    1.01240    0.99193    0.99564    1.01086  952.50000    5.91250    5.94286   33.82582
3247.8   30.00000   39.83333 1728.00000    6.98000    6.40000  91437.50000 1135.00000    2.43483    5.12642   39.67083 1792120.00000 285320.00000    2.31333    2.31540   69.68000    0.00    0.00  136.98000    0.31636   957.85218   -0.40056  345.39678   -0.14889  326.73371    0.85273   712.76556    1.14727  174.78573    4.12000   119.65518    0.98345    1.02339    1.01356    0.99482    0.99564    1.01073  677.14286    4.11429    4.16250   33.81433
3248.0   27.69231   39.75000 1680.00000    6.78571    6.78750  93440.00000 1220.00000    2.48833    5.51033   38.53333 1767084.00000 268632.00000    2.35000    2.34978   66.13333    0.00    0.00  136.16667    0.01889   900.07467    0.96500  144.85150    0.19625  323.01113   -0.27111   985.01250    0.89333  234.77189    3.10000   171.26922    0.98356    1.01975    1.01288    0.99689    0.99589    1.01144  820.00000    5.08889    5.28889   33.84112
3248.2   22.50000   39.70000 1810.00000    7.33333    6.45000  96480.00000 1620.00000    2.56900    7.31700   30.30000 1606448.57143 223680.00000    2.41714    2.41511   67.63333    0.00    0.00  135.13333    0.71556   206.58933    1.07200  129.36960    0.24800  243.78060    2.42944   160.24117    0.57167  598.93411    2.00056   595.63789    0.98344    1.01800    1.01240    0.99333    0.99650    1.01606  880.00000    5.38333    5.23333   33.94825
3248.4    5.78492   39.23750 1508.57143    6.08571    6.18571  99560.00000 1480.00000    2.65111    6.68467   34.01111 1467000.00000 177361.66667    2.52000    2.52018   69.80000    0.00    0.00  139.30000    0.83429   171.51171    1.14200  119.57670    0.24000  249.31270    2.96714   120.22700    1.11000  181.28500    3.97286   124.81057    0.98429    1.01960    1.01260    0.99071    0.99629    1.00957  847.50000    5.18750    5.40000   33.93900
3248.6    2.14580   39.82000 1602.85714    6.48571    6.45714 105720.00000 1908.00000    2.81540    8.61780   28.28000 1396509.60000 163612.80000    2.54200    2.54357   67.88571    0.00    0.00  136.85714    0.90429   156.27743    1.09875  125.13713    0.24375  251.76025    3.04143   116.53900    1.13143  177.26814    4.13286   119.18000    0.98471    1.01813    1.01238    0.99086    0.99686    1.00800  816.00000    5.00000    4.98000   33.91100
3248.8   60.00000   39.94000 1480.00000    6.00000    6.70000 114195.00000 2437.50000    3.04088   11.00938   24.96250 1454200.00000 172680.00000    2.53333    2.53356   68.95897    0.00    0.00  137.94103    0.82125   173.36538    0.90500  247.98620    0.23900  334.88180    2.80500   128.71700    1.08625  185.24725    3.93500   126.31050    0.98425    1.01840    1.01270    0.98938    0.99650    1.00775  840.00000    5.16000    5.17500   33.84540
3249.0   40.00000   40.15000 1680.00000    6.78000    7.35000 122835.00000 2145.00000    3.27100    9.68825   29.43750 1427772.00000 176280.00000    2.50400    2.50456   68.79583    0.00    0.00  139.32917    0.54300   286.40070   -0.10600 2021.63300   -0.02200  563.36700    1.61500   256.93840    0.81000  258.12090    2.72700   195.46290    0.98320    1.02280    1.01340    0.99060    0.99600    1.00730  825.00000    4.97500    4.76000   33.92011
3249.2   32.72727   40.20000 1716.00000    6.96000    7.73333 126135.00000 2145.00000    3.35850    9.68825   30.47500 1636100.00000 197220.00000    2.52167    2.52238   71.13333    0.00    0.00  139.83333    0.59667   258.30189    0.54000  277.51725    0.13750  538.85850    1.69667   250.47156    0.76778  274.70233    2.49778   217.06056    0.98433    1.02050    1.01300    0.99133    0.99644    1.00900  750.00000    4.62500    5.20000   33.94260
3249.4    6.79245   38.83000 1884.00000    7.60000    7.52500 136480.80000 2660.40000    3.63432   12.01614   26.89800 1646802.85714 189685.71429    2.55143    2.55621   73.00000    0.00    0.00  134.20000    0.76200   188.34000    0.53667  279.78000    0.12000  545.80100    2.29600   163.11920    0.75400  294.12120    2.26000   271.35060    0.98420    1.02067    1.01233    0.99120    0.99660    1.01340  900.00000    5.52000    5.27500   33.97925
3249.6    7.20000   38.23333 1787.14286    7.24286    7.54000 141975.00000 3075.00000    3.78075   13.88875   24.45000 1546002.85714 173785.71429    2.57143    2.57435   66.30000    0.00    0.00  134.51111    0.91000   155.51350    1.08667  128.83817    0.27167  226.47000    3.07750   115.74650    0.97250  217.84750    3.64000   138.42700    0.98400    1.01800    1.01267    0.98800    0.99500    1.00800  816.00000    4.98000    4.91667   33.86167
3249.8   60.00000   39.00000 2486.66667   10.05556   10.17500 139965.00000 2520.00000    3.72700   11.38200   28.57500 1398531.42857 145971.42857    2.62714    2.62953   63.96667    0.00    0.00  129.00000    1.05667   131.15933    0.99333  144.30100    0.25000  246.43000    3.28667   106.25933    1.21000  164.60967    3.97333   124.77533    0.98333    1.01967    1.01233    0.98733    0.99600    1.00600  820.00000    5.00000    5.04000   34.02120
3250.0   51.42857   39.05000 2740.00000   11.07778   11.00000 142251.42857 2991.42857    3.78800   13.51129   25.20000 1411636.47059 167716.47059    2.53314    2.53316   63.61250    0.00    0.00  128.41250    0.94600   148.35140    0.79400  187.16040    0.18600  362.85880    3.19800   110.17920    1.27200  156.21460    4.36000   112.23820    0.98340    1.02200    1.01280    0.99040    0.99600    1.00720  805.71429    4.94286    4.92857   33.94225
3250.2   30.00000   40.18000 2537.14286   10.25714   10.10000 137388.51064 1884.25532    3.65847    8.51055   36.76170 1407260.00000 172860.00000    2.50667    2.50837   68.93000    0.00    0.00  138.18000    1.15750   119.83675    1.69800   77.88300    0.43800  133.75700    4.03750    84.63000    1.48750  131.68475    4.95000    96.87025    0.98450    1.02000    1.01320    0.98975    0.99650    1.00975  956.36364    5.91212    5.92353   33.90520
3250.4   24.00000   40.68333 2202.85714    8.88571    9.00000 126300.00000 1710.00000    3.36300    7.72350   36.35000 1424130.00000 195300.00000    2.43000    2.42643   35.50000    0.00    0.00  113.67500    1.58400    82.98160    2.59833   46.82850    0.64833   87.10083    5.53000    55.81700    1.83000  103.84800    6.54600    68.99560    0.98320    1.01800    1.01400    0.98720    0.99620    1.00820  964.61538    5.89231    5.87200   33.93960
3250.6   36.00000   40.05000 1956.55172    7.90920    7.97841 124935.00000 1560.00000    3.32675    7.04600   39.07500 1427600.00000 216840.00000    2.35000    2.35041   71.25306    0.00    0.00  144.83673    1.70833    76.17150   -0.03615   73.92300   -0.04256  139.33985    6.01833    50.24017    2.26833   81.78250    8.21500    52.71950    0.98367    1.02574    1.01362    0.98417    0.99550    1.00233 1110.00000    6.65000    6.43333   33.92914
3250.8   25.71429   39.22857 1524.00000    6.18000    6.35000 113100.00000 1395.00000    3.01175    6.30075   40.45000 1654180.00000 274280.00000    2.28667    2.28518   79.92500    0.00    0.00  150.47500    1.20667   119.48383   -0.68042   25.98400   -0.18625   50.67200    4.14167    85.23417    1.76833  112.36183    6.44167    73.98533    0.98350    1.03083    1.01425    0.98633    0.99633    1.00267  973.33333    6.01111    6.03750   33.99238
