# © ООО НПП ГА «Луч», 2008 - 2018/1.0.349.0.230602/CНГ УБР-1
~VERSION INFORMATION
VERS     .                               2.0:CWLS LAS VERSION
WRAP     .                                NO: One line per depth step
~WELL INFORMATION
#    MNEM.UNIT                     DATA TYPE:INFORMATION
#========.==================================:=========================================
STRT     .M                           3103.4:FIRST DEPTH IN FILE
STOP     .M                             3700:LAST DEPTH IN FILE
STEP     .M                              0.2:DEPTH INCREMENT
NULL     .                           -999.25:NULL VALUES
DATE     .                        13/10/2045:Дата каротажа
DRVD     .                   :Наименование драйвера прибора
SRVC     .                          :Сервисная компания
COMP     .                   :Оператор месторожения
FLD      .                1:Название месторождения
CLST     .                                1:Номер куста
WELL     .                       1:Номер скважины
OPRT     .                          :ФИО оператора
~CURVE INFORMATION
#    MNEM.UNIT                      API CODE:CURVE DESCRIPTION
#========.==================================:=========================================
DEPT     .M                                 :DEPT
SPEE     .M/H                               :Скорость, м/час - 12.326 м.
IPRS     .МПа                               :Давление внутритрубное - 19.116 м.
RGR      .имп/мин                           :Счет интегрального ГК, имп/мин - 14.601 м.
GR       .мкР/ч                             :Естественная гамма-активность, мкР/ч - 14.601 м.
GR_AVG   .мкР/ч                             :Естественная гамма-активность, мкР/ч - 14.601 м.
RNTN     .имп/мин                           :Счет по каналу малого зонда ННКт, имп./мин. - 11.506 м.
RFTN     .имп/мин                           :Счет по каналу большого зонда ННКт,  имп./мин. - 11.506 м.
NTNL     .у.е.                              :Малый зонд ННКт, у.е. - 11.506 м.
FTNL     .у.е.                              :Большой зонд ННКт, у.е. - 11.506 м.
TRNP     .%                                 :Кажущиеся пористость по ННКТ KNNA+KNNB*A+KNNC*A*A, где A=NTNL/FTNL., % - 11.506 м.
RSDL     .имп/мин                           :Счёт, ближний зонд ГГКП, имп/мин - 10.766 м.
RLDL     .имп/мин                           :Счёт, дальний зонд ГГКП, имп/мин - 10.766 м.
RHOB     .г/см3                             :Плотность, г/см3 - 10.766 м.
RHOB_POST.g/cm3                             :Плотность, г/см3 - 10.766 м.
RAD1     .мм                                :Радиус 1 профилемера, мм - 10.283 м.
RAD2     .мм                                :Радиус 2 профилемера, мм - 10.283 м.
RAD3     .мм                                :Радиус 3 профилемера, мм - 10.283 м.
CALI     .мм                                :Диаметр скважины, мм - 10.283 м.
PHL      .град                              :Разность фаз по зонду И 0.35 И 1.05 Г L=1.4м 0.88МГц, град - 8.154 м.
ROPL     .Омм                               :Кажущееся сопротивление зонда И 0.35 И 1.05 Г, L=1.4м 0.88МГц, Омм - 8.154 м.
PHH      .град                              :Разность фаз по зонду И 0.175 И 0.525 Г,  L=0.7м 3.505МГц, град - 8.504 м.
ROPH     .Омм                               :Кажущееся сопротивление зонда И 0.175 И 0.525 Г, L=0.7м 3.505МГц, Омм - 8.504 м.
PHLD     .град                              :Разность фаз по зонду И 0.175 И 0.875 Г, L=1.05м 0.88МГц, град - 8.504 м.
ROPLD    .Омм                               :Кажущееся сопротивление зонда И 0.175 И 0.875 Г, L=1.05м 0.88МГц, Омм - 8.504 м.
PHHD     .град                              :Разность фаз по зонду И 0.35 И 0.7 Г, L=1.05м 3.505МГц, град - 8.154 м.
ROPHD    .Омм                               :Кажущееся сопротивление зонда И 0.35 И 0.7 Г, L=1.05м 3.505МГц, Омм - 8.154 м.
PHLE     .град                              :Разность фаз по зонду И 0.525 И 0.875 Г, L=1.4м 0.88МГц, град - 8.154 м.
ROPLE    .Омм                               :Кажущееся сопротивление зонда И 0.525 И 0.875 Г, L=1.4м 0.88МГц, Омм - 8.154 м.
PHHE     .град                              :Разность фаз по зонду И 0.525 И 0.525 Г, L=1.05м 3.505МГц, град - 8.154 м.
ROPHE    .Омм                               :Кажущееся сопротивление зонда И 0.525 И 0.525 Г, L=1.05м 3.505МГц, Омм - 8.154 м.
AL       .                                  :Отношение амплитуд, зонд И 0.35 И 1.05 Г, L=1.4м 0.88МГц, отношение амплитуд - 8.154 м.
AH       .                                  :Отношение амплитуд, зонд И 0.175 И 0.525 Г, L=0.7м 3.505МГц, отношение амплитуд - 8.504 м.
ALD      .                                  :Отношение амплитуд, зонд И 0.175 И 0.875 Г,  L=1.05м 0.88МГц, отношение амплитуд - 8.504 м.
AHD      .                                  :Отношение амплитуд, зонд И 0.35 И 0.7 Г, L=1.05м 3.505МГц, отношение амплитуд - 8.154 м.
ALE      .                                  :Отношение амплитуд, зонд И 0.525 И 0.875 Г, L=1.4м 0.88МГц, отношение амплитуд - 8.154 м.
AHE      .                                  :Отношение амплитуд, зонд И 0.525 И 0.525 Г, L=1.05м 3.505МГц, отношение амплитуд - 8.154 м.
RGR_VIKPB.имп/мин                           :Счет интегрального ГК, имп/мин - 9.049 м.
GR_VIKPB .мкР/ч                             :Естественная гамма-активность, мкР/ч - 9.049 м.
GR_AVG_VIKPB.мкР/ч                             :Естественная гамма-активность, мкР/ч - 9.049 м.
OPRS     .МПа                               :Давление затрубное - 8.337 м.
~PARAMETER INFORMATION BLOCK
#    MNEM.UNIT                      API CODE:CURVE DESCRIPTION
#========.==================================:=========================================

~OTHER INFORMATION


~A           SPEE       IPRS        RGR         GR     GR_AVG         RNTN       RFTN       NTNL       FTNL       TRNP          RSDL         RLDL       RHOB  RHOB_POST       RAD1    RAD2    RAD3       CALI        PHL        ROPL        PHH       ROPH       PHLD      ROPLD       PHHD       ROPHD       PHLE      ROPLE       PHHE       ROPHE         AL         AH        ALD        AHD        ALE        AHE  RGR_VIKPB   GR_VIKPB _AVG_VIKPB       OPRS
# ...
3431.0    6.10169   41.50000 2296.36364    9.27273    8.80833  91148.57143  968.57143    2.42714    4.37471   46.02857 1661175.00000 234172.50000    2.40500    2.40593   69.07500    0.00    0.00  135.33750    1.69111    77.70133    1.19250  130.26675    0.34750  187.69513    4.22444    79.09489    2.41444   75.48733    6.77889    66.30800    0.98144    1.01350    1.00888    0.97367    0.98933    0.98433  682.50000    4.18750    3.97500   35.83155
3431.2    6.20690   41.86667 2446.22951    9.88033    9.73279  88808.57143  960.00000    2.36471    4.33600   44.91429 1627246.15385 226740.00000    2.41154    2.41457   67.73333    0.00    0.00  137.64000    1.69364    77.14464    1.97300   64.00610    0.55800  100.14630    4.20091    80.12218    2.19273   84.42364    6.10455    75.56064    0.98173    1.01310    1.00830    0.97418    0.98982    0.98582  624.00000    3.96000    4.20000   35.75980
3431.4   18.00000   41.82222 2940.00000   11.86667   11.23333  87934.28571  874.28571    2.34157    3.94886   48.58571 1603326.66667 223766.66667    2.41222    2.41338   69.71429    0.00    0.00  136.78571    2.02714    62.50429    3.06000   38.85000    0.82875   65.62138    5.72857    53.89700    2.49857   72.73143    7.32286    61.00629    0.98171    1.01250    1.00800    0.97314    0.98986    0.98514  589.41176    3.64118    3.62500   35.82600
3431.6   16.36364   41.78000 2240.00000    9.03333   10.61429  90387.27273 1118.18182    2.40691    5.05045   40.60000 1614886.66667 227240.00000    2.40444    2.40726   70.69000    0.00    0.00  140.81000    2.20300    56.65470    2.83500   41.68788    0.77625   69.41950    6.42000    46.49290    2.75400   64.42780    8.51500    49.76370    0.98130    1.01113    1.00850    0.97220    0.98930    0.98500  630.00000    3.92000    3.82000   35.77133
3431.8   17.14286   42.10000 2502.85714   10.11429    9.84286  84486.25000  888.75000    2.24979    4.01419   46.74792 1683188.57143 231017.14286    2.42286    2.42582   65.82000    0.00    0.00  132.96000    1.81125    71.03438    1.45800   99.29380    0.41200  146.88660    4.90125    65.18713    2.65625   67.13150    8.10000    52.80375    0.98138    1.01360    1.00900    0.97125    0.98900    0.98200  804.00000    4.91000    5.43636   35.80100
3432.0   15.65217   41.81667 2330.00000    9.41667    9.80000  84290.00000  900.00000    2.24433    4.06500   46.86667 1663560.00000 227790.00000    2.42500    2.42756   65.63750    0.00    0.00  134.06250    1.72143    75.45800    2.19588   57.26029    0.61706   90.90941    4.50714    72.89086    2.44286   74.13586    7.20857    61.11829    0.98129    1.01288    1.00853    0.97329    0.98986    0.98286 1260.00000    7.73636    7.63636   35.81113
3432.2   16.36364   42.34000 2240.00000    9.05000    9.43333  85952.00000  964.00000    2.28880    4.35407   43.55333 1655751.42857 230605.71429    2.41571    2.41492   63.60000    0.00    0.00  130.36667    2.09182    60.16427    2.85500   41.32790    0.78700   68.46200    5.98273    50.67782    2.61273   69.05882    7.82909    55.83973    0.98082    1.01070    1.00780    0.97064    0.98945    0.98291 1185.00000    7.31250    7.32500   35.88441
3432.4   18.00000   41.85000 2000.00000    8.08889    8.24000  90567.27273  949.09091    2.41173    4.28673   46.24545 1547264.15094 211015.47170    2.43623    2.43055   65.43333    0.00    0.00  132.05000    2.43077    50.22431    3.39364   33.49282    0.92545   57.10655    7.23231    39.41177    3.10385   55.77454    9.59692    42.63992    0.98046    1.00773    1.00755    0.96523    0.98838    0.97646 1212.85714    7.45714    7.36429   35.93333
3432.6   14.40000   41.68333 1950.00000    7.88333    8.06000  89246.66667  966.66667    2.37644    4.36611   45.26667 1576968.00000 211140.00000    2.44400    2.44426   66.08750    0.00    0.00  134.96250    2.31667    53.20378    2.71200   45.14430    0.72600   76.45610    6.79556    42.75922    3.13778   54.98500    9.77889    41.55444    0.98033    1.01240    1.00840    0.96833    0.98833    0.97733 1114.28571    6.74286    6.95714   35.89858
3432.8   13.33333   40.28913 1960.00000    7.93333    8.14000  85920.00000  906.00000    2.28790    4.09210   46.38000 1613220.00000 219708.00000    2.42900    2.43157   66.11250    0.00    0.00  136.32500    2.35917    52.13117    3.64200   32.08080    0.97300   56.09560    7.12250    40.33208    3.28833   52.07700   10.56250    37.75442    0.98100    1.00660    1.00820    0.96917    0.98892    0.97675 1161.81818    7.12727    7.14545   35.93267
3433.0   18.94737   40.20000 2082.85714    8.42857    8.41667  86340.00000  876.92308    2.29908    3.96077   47.88462 1623880.00000 225110.00000    2.41750    2.41840   70.58200    0.00    0.00  140.16800    2.17444    57.41000    1.91385   72.44792    0.50692  120.96492    6.51000    45.29444    2.86444   61.36344    9.03667    45.98756    0.98189    1.01908    1.00869    0.97289    0.98956    0.98456 1224.00000    7.53000    7.28889   35.90955
3433.2   18.00000   41.20000 2280.00000    9.20000    8.15000  87106.66667  893.33333    2.31967    4.03489   46.72222 1662635.00000 236265.00000    2.39667    2.39997   66.81429    0.00    0.00  129.15714    1.82364    70.88573    2.63714   45.91186    0.69714   79.21114    5.22455    60.82700    2.79091   63.71536    8.76636    48.19300    0.98227    1.01657    1.00871    0.98118    0.98945    0.98809 1102.50000    6.78750    6.90000   35.89373
3433.4    4.67532   41.55714 1972.50000    7.96250    8.10000  91020.00000  863.07692    2.42377    3.89823   51.47692 1665486.66667 253753.33333    2.34556    2.34811   67.62308    0.00    0.00  138.90000    2.46091    51.00318    3.81400   36.53830    1.02000   61.65370    7.59364    38.96945    2.96727   61.12182    9.47364    45.86109    0.98164    1.01360    1.00830    0.97418    0.99027    0.99336 1180.00000    7.30000    7.33000   35.86213
3433.6    0.39648   41.65455 1875.00000    7.59167    7.89167  92181.42857  788.57143    2.45457    3.56171   56.46429 1788567.27273 258949.09091    2.38182    2.38608   67.61000    0.00    0.00  123.62000    2.31500    54.85213    1.46692  298.08938    0.35154  172.25257    7.18625    41.97063    3.01500   59.49200    9.68750    43.97288    0.98175    1.01238    1.00862    0.97225    0.98988    0.98788 1200.00000    7.36250    7.48750   35.91345
3433.8   45.00000   41.35000 1980.00000    8.00000    8.73333  89302.50000  907.50000    2.37800    4.09888   47.51250 1719235.00000 242755.00000    2.40083    2.40471   64.80833    0.00    0.00  133.99167    1.34231   112.88015    2.57143   49.03771    0.68857   81.02486    3.43769   142.03777    2.59154   69.22631    8.07308    53.20377    0.98200    1.01257    1.00857    0.97577    0.99000    0.98508 1350.00000    8.30000    7.32857   35.88020
3434.0   32.72727   41.48571 2400.00000    9.70000    9.25000  93965.00000  895.00000    2.50225    4.04242   50.26667 1647007.50000 240997.50000    2.37875    2.37819   65.61429    0.00    0.00  123.20000    2.12250    59.13850    2.88857   40.68829    0.77714   69.27129    6.28750    47.51363    1.90625  100.67588    5.44875    89.33038    0.98138    1.01200    1.00800    0.97138    0.98975    0.98600  765.00000    4.75000    4.88571   35.91029
3434.2   30.00000   41.88333 2421.81818    9.79091    9.64545  95274.46154  951.69231    2.53702    4.29848   48.42615 1653210.00000 229443.75000    2.41563    2.41753   65.24615    0.00    0.00  131.72308    2.18200    57.47820    3.09714   38.18286    0.79571   68.70700    6.56400    45.29080    2.90300   60.61810    9.26500    44.72880    0.98120    1.01229    1.00843    0.97280    0.98930    0.98390 1058.07692    6.47500    6.52115   35.87975
3434.4   30.00000   42.07500 2236.74419    9.04186    9.01395  91380.00000 1020.00000    2.43350    4.60700   43.40000 1635141.81818 224334.54545    2.42273    2.42611   68.71000    0.00    0.00  136.73000    1.91400    66.59440    1.64857   81.61843    0.45571  128.31729    5.45200    56.88460    2.63600   67.85940    8.28200    51.42380    0.98140    1.01386    1.00843    0.97320    0.98940    0.98500 1224.00000    7.52000    7.10000   35.84613
