# © ООО НПП ГА «Луч», 2008 - 2018/1.0.349.0.230602/CНГ УБР-1
~VERSION INFORMATION
VERS     .                               2.0:CWLS LAS VERSION
WRAP     .                                NO: One line per depth step
~WELL INFORMATION
#    MNEM.UNIT                     DATA TYPE:INFORMATION
#========.==================================:=========================================
STRT     .M                           3103.4:FIRST DEPTH IN FILE
STOP     .M                             3700:LAST DEPTH IN FILE
STEP     .M                              0.2:DEPTH INCREMENT
NULL     .                           -999.25:NULL VALUES
DATE     .                        13/10/2045:Дата каротажа
DRVD     .                   :Наименование драйвера прибора
SRVC     .                          :Сервисная компания
COMP     .                   :Оператор месторожения
FLD      .                1:Название месторождения
CLST     .                                1:Номер куста
WELL     .                       1:Номер скважины
OPRT     .                          :ФИО оператора
~CURVE INFORMATION
#    MNEM.UNIT                      API CODE:CURVE DESCRIPTION
#========.==================================:=========================================
DEPT     .M                                 :DEPT
SPEE     .M/H                               :Скорость, м/час - 12.326 м.
IPRS     .МПа                               :Давление внутритрубное - 19.116 м.
RGR      .имп/мин                           :Счет интегрального ГК, имп/мин - 14.601 м.
GR       .мкР/ч                             :Естественная гамма-активность, мкР/ч - 14.601 м.
GR_AVG   .мкР/ч                             :Естественная гамма-активность, мкР/ч - 14.601 м.
RNTN     .имп/мин                           :Счет по каналу малого зонда ННКт, имп./мин. - 11.506 м.
RFTN     .имп/мин                           :Счет по каналу большого зонда ННКт,  имп./мин. - 11.506 м.
NTNL     .у.е.                              :Малый зонд ННКт, у.е. - 11.506 м.
FTNL     .у.е.                              :Большой зонд ННКт, у.е. - 11.506 м.
TRNP     .%                                 :Кажущиеся пористость по ННКТ KNNA+KNNB*A+KNNC*A*A, где A=NTNL/FTNL., % - 11.506 м.
RSDL     .имп/мин                           :Счёт, ближний зонд ГГКП, имп/мин - 10.766 м.
RLDL     .имп/мин                           :Счёт, дальний зонд ГГКП, имп/мин - 10.766 м.
RHOB     .г/см3                             :Плотность, г/см3 - 10.766 м.
RHOB_POST.g/cm3                             :Плотность, г/см3 - 10.766 м.
RAD1     .мм                                :Радиус 1 профилемера, мм - 10.283 м.
RAD2     .мм                                :Радиус 2 профилемера, мм - 10.283 м.
RAD3     .мм                                :Радиус 3 профилемера, мм - 10.283 м.
CALI     .мм                                :Диаметр скважины, мм - 10.283 м.
PHL      .град                              :Разность фаз по зонду И 0.35 И 1.05 Г L=1.4м 0.88МГц, град - 8.154 м.
ROPL     .Омм                               :Кажущееся сопротивление зонда И 0.35 И 1.05 Г, L=1.4м 0.88МГц, Омм - 8.154 м.
PHH      .град                              :Разность фаз по зонду И 0.175 И 0.525 Г,  L=0.7м 3.505МГц, град - 8.504 м.
ROPH     .Омм                               :Кажущееся сопротивление зонда И 0.175 И 0.525 Г, L=0.7м 3.505МГц, Омм - 8.504 м.
PHLD     .град                              :Разность фаз по зонду И 0.175 И 0.875 Г, L=1.05м 0.88МГц, град - 8.504 м.
ROPLD    .Омм                               :Кажущееся сопротивление зонда И 0.175 И 0.875 Г, L=1.05м 0.88МГц, Омм - 8.504 м.
PHHD     .град                              :Разность фаз по зонду И 0.35 И 0.7 Г, L=1.05м 3.505МГц, град - 8.154 м.
ROPHD    .Омм                               :Кажущееся сопротивление зонда И 0.35 И 0.7 Г, L=1.05м 3.505МГц, Омм - 8.154 м.
PHLE     .град                              :Разность фаз по зонду И 0.525 И 0.875 Г, L=1.4м 0.88МГц, град - 8.154 м.
ROPLE    .Омм                               :Кажущееся сопротивление зонда И 0.525 И 0.875 Г, L=1.4м 0.88МГц, Омм - 8.154 м.
PHHE     .град                              :Разность фаз по зонду И 0.525 И 0.525 Г, L=1.05м 3.505МГц, град - 8.154 м.
ROPHE    .Омм                               :Кажущееся сопротивление зонда И 0.525 И 0.525 Г, L=1.05м 3.505МГц, Омм - 8.154 м.
AL       .                                  :Отношение амплитуд, зонд И 0.35 И 1.05 Г, L=1.4м 0.88МГц, отношение амплитуд - 8.154 м.
AH       .                                  :Отношение амплитуд, зонд И 0.175 И 0.525 Г, L=0.7м 3.505МГц, отношение амплитуд - 8.504 м.
ALD      .                                  :Отношение амплитуд, зонд И 0.175 И 0.875 Г,  L=1.05м 0.88МГц, отношение амплитуд - 8.504 м.
AHD      .                                  :Отношение амплитуд, зонд И 0.35 И 0.7 Г, L=1.05м 3.505МГц, отношение амплитуд - 8.154 м.
ALE      .                                  :Отношение амплитуд, зонд И 0.525 И 0.875 Г, L=1.4м 0.88МГц, отношение амплитуд - 8.154 м.
AHE      .                                  :Отношение амплитуд, зонд И 0.525 И 0.525 Г, L=1.05м 3.505МГц, отношение амплитуд - 8.154 м.
RGR_VIKPB.имп/мин                           :Счет интегрального ГК, имп/мин - 9.049 м.
GR_VIKPB .мкР/ч                             :Естественная гамма-активность, мкР/ч - 9.049 м.
GR_AVG_VIKPB.мкР/ч                             :Естественная гамма-активность, мкР/ч - 9.049 м.
OPRS     .МПа                               :Давление затрубное - 8.337 м.
~PARAMETER INFORMATION BLOCK
#    MNEM.UNIT                      API CODE:CURVE DESCRIPTION
#========.==================================:=========================================

~OTHER INFORMATION


~A           SPEE       IPRS        RGR         GR     GR_AVG         RNTN       RFTN       NTNL       FTNL       TRNP          RSDL         RLDL       RHOB  RHOB_POST       RAD1    RAD2    RAD3       CALI        PHL        ROPL        PHH       ROPH       PHLD      ROPLD       PHHD       ROPHD       PHLE      ROPLE       PHHE       ROPHE         AL         AH        ALD        AHD        ALE        AHE  RGR_VIKPB   GR_VIKPB _AVG_VIKPB       OPRS
# ...
3503.0   18.94737   41.82857 2653.33333   10.72222   11.46667  90101.37931  939.31034    2.39924    4.24255   46.64138 1623966.00000 212616.00000    2.46000    2.46092   65.81667    0.00    0.00  134.16667    3.15500    36.50350    3.65568   30.24965    1.07811   47.61062    9.12500    28.72900    4.20000   38.34600   12.67000    29.55900    0.97900    1.00900    1.00768    0.95750    0.98700    0.96600 1036.00000    6.44000    6.37143   36.31100
3503.2   17.14286   41.77778 2533.33333   10.23333   10.61250  91828.30189  956.60377    2.44525    4.32066   46.69811 1725090.86957 237514.78261    2.42254    2.42348   67.21111    0.00    0.00  130.74444    3.12667    36.92300    4.16176   25.65006    1.20412   41.92018    9.06000    29.01333    4.16000   38.81100   12.64000    29.65267    0.98000    1.00788    1.00712    0.95833    0.98700    0.96600  970.00000    6.03333    6.06667   36.20380
3503.4   15.65217   41.67000 2662.50000   10.77500   10.14444  93730.00000  940.00000    2.49583    4.24567   48.10000 1622147.36842 214957.89474    2.45158    2.45194   68.69167    0.00    0.00  131.35833    3.08659    37.51524    3.91571   27.74810    1.13524   44.87814    8.97195    29.40483    4.18805   38.48734   12.70463    29.45368    0.97900    1.00795    1.00719    0.95768    0.98671    0.96532 1060.00000    6.51111    6.36000   36.19200
3503.6   12.00000   41.95000 2598.00000   10.51000    9.95000  91807.50000 1035.00000    2.44463    4.67475   43.27500 1628581.66667 209535.00000    2.47250    2.47389   67.26250    0.00    0.00  135.02500    3.04056    38.21544    3.81364   28.67082    1.14273   44.51009    8.79111    30.23450    4.26833   37.57850   12.92222    28.79411    0.97889    1.00773    1.00682    0.95800    0.98622    0.96483  978.00000    5.94000    5.97000   36.22819
3503.8   10.90909   42.04286 2607.27273   10.53636   10.28000  94530.00000  936.00000    2.51740    4.22760   49.13000 1560707.58621 203160.00000    2.46241    2.46521   65.64014    0.00    0.00  131.73946    3.02818    38.40536    3.80500   28.75310    1.14000   44.61210    8.67091    30.80700    4.16636   38.73732   12.56682    29.88677    0.97941    1.00700    1.00710    0.95836    0.98614    0.96514  969.23077    5.93846    5.91538   36.24821
3504.0   11.61290   41.95714 2660.00000   10.75000   10.94615  93855.00000  915.00000    2.49925    4.13275   49.25000 1555443.82979 211871.48936    2.42830    2.43146   70.92667    0.00    0.00  142.46667    3.00875    38.71538    3.66200   30.22240    1.10400   46.31180    8.67375    30.79400    4.18125   38.56500   12.53750    29.97688    0.97913    1.00820    1.00700    0.95725    0.98625    0.96338  960.00000    5.98333    6.15000   36.17957
3504.2   13.33333   41.78333 2570.00000   10.39167   10.90909  93030.00000  965.00000    2.47725    4.35858   47.32500 1616115.00000 217342.50000    2.43750    2.44096   70.93750    0.00    0.00  142.89375    3.04857    38.08371    4.50182   25.24736    1.27364   41.48327    8.72857    30.52929    4.19571   38.39957   12.56857    29.87771    0.97957    1.00736    1.00745    0.95686    0.98700    0.96314 1050.00000    6.50000    6.35714   36.22355
3504.4   15.65217   42.02500 2801.53846   11.32308   10.93077  90730.58824  847.05882    2.41600    3.82588   52.00000 1651340.00000 213720.00000    2.46500    2.46951   71.04909    0.00    0.00  142.58727    2.99692    38.91346    3.81643   30.69193    1.11571   47.60350    8.56769    31.33485    4.10846   39.44985   12.35692    30.59585    0.97931    1.00736    1.00714    0.96069    0.98700    0.96792  980.00000    6.01111    5.91250   36.36850
3504.6   15.00000   42.41429 2453.23944    9.90986   10.05493  87188.00000  836.00000    2.32173    3.77593   50.76000 1640753.33333 221980.00000    2.43222    2.43651   75.33333    0.00    0.00  151.96667    2.78833    43.14700    1.79750   87.86075    0.62750  103.28425    7.86500    36.33583    4.29500   37.28417   13.13333    28.17150    0.97950    1.01025    1.00725    0.95967    0.98600    0.96467  886.66667    5.48889    5.59000   36.52723
3504.8   17.14286   42.43333 2400.00000    9.70000    9.25000  88344.70588  896.47059    2.35259    4.04906   48.01176 1676029.09091 229985.45455    2.42182    2.42598   72.50000    0.00    0.00  141.26667    3.36818    33.79555    4.59800   35.20933    1.30300   51.31622    9.95091    25.70791    4.45818   35.95455   13.68636    27.15636    0.97845    1.00580    1.00690    0.95564    0.98564    0.96182  938.18182    5.78182    5.73000   36.49288
3505.0   16.36364   42.46667 2246.66667    9.07778    9.20000  86126.66667 1013.33333    2.29344    4.57689   41.74444 1731766.66667 224620.00000    2.46667    2.46788   66.10833    0.00    0.00  133.09167    2.68375    45.81538    1.24600   67.00767    0.49200  509.41220    7.24375    42.23825    3.85250   43.04988   11.25500    35.13100    0.97838    1.01140    1.00740    0.96013    0.98625    0.96513  930.00000    5.70479    5.70342   36.55767
3505.2   14.40000   42.37500 2074.28571    8.37143    9.08571  88800.00000 1010.00000    2.36458    4.56183   43.22500 1562004.70588 207621.17647    2.44941    2.44967   68.96667    0.00    0.00  137.54167    2.64333    46.81567    4.08000   26.54521    1.19571   42.46307    7.20833    42.95500    3.71667   45.20267   10.81500    37.39483    0.97983    1.00686    1.00736    0.96000    0.98650    0.96650  830.00000    5.13750    5.18750   36.50011
3505.4   17.14286   42.54286 2245.71429    9.05714    8.90000  93098.18182  943.63636    2.47891    4.26209   48.32727 1599105.00000 215583.75000    2.43750    2.43913   69.00000    0.00    0.00  137.90000    3.13111    36.91711    3.23467   35.63913    0.97830   53.10619    9.06333    29.09478    3.91222   42.67733   11.51111    34.72733    0.97867    1.00775    1.00738    0.95756    0.98667    0.96578  860.62500    5.31563    5.24242   36.53075
3505.6   18.94737   42.36250 2340.00000    9.45000    9.04444  93315.00000  980.00000    2.48458    4.42633   46.55833 1684732.94118 224558.82353    2.44294    2.44760   69.85556    0.00    0.00  137.72222    2.69833    44.41350    3.51450   31.99845    1.06950   48.15470    7.38667    38.64200    3.95083   41.42717   11.66833    33.01633    0.97900    1.00675    1.00715    0.96100    0.98567    0.96717  770.00000    4.72917    4.75652   36.55809
3505.8   20.00000   42.27143 2161.83206    8.74275    8.67879  92293.84615  895.38462    2.45762    4.04415   49.71538 1624085.45455 212045.45455    2.45909    2.46298   70.80000    0.00    0.00  137.02143    3.08536    37.55846    3.85061   28.44394    1.14485   44.54882    8.83558    30.07351    4.07181   39.89611   12.07638    31.54288    0.97829    1.00667    1.00724    0.95587    0.98561    0.96238  732.00000    4.54250    4.56250   36.55241
3506.0   18.94737   42.30000 2446.66667    9.90000    9.75556  91855.00000 1035.00000    2.44583    4.67475   44.50000 1565220.00000 207645.00000    2.44917    2.45111   65.28571    0.00    0.00  132.48571    3.08000    37.61306    3.67138   30.15676    1.10034   46.59390    8.82412    30.09624    4.16647   38.74312   12.46118    30.22706    0.97906    1.00793    1.00755    0.95682    0.98565    0.96218  753.33333    4.64444    4.64444   36.55455
3506.2   17.14286   42.18333 2065.71429    8.35714    9.42857  91393.33333 1106.66667    2.43367    4.99844   40.68889 1605380.00000 212840.00000    2.45000    2.45158   68.80769    0.00    0.00  134.60000    3.10526    37.25511    3.91148   27.78344    1.16815   43.42444    8.89395    29.77339    4.26158   37.66055   12.72921    29.38647    0.97829    1.00622    1.00713    0.95653    0.98579    0.96224  803.07692    4.98462    4.94615   36.56597
3506.4   17.14286   42.25714 2467.50000    9.96250    9.75714  91240.00000 1193.33333    2.42967    5.38989   37.83333 1577592.00000 206544.00000    2.45800    2.46093   69.77778    0.00    0.00  137.83333    3.23517    35.40138    4.38200   24.03920    1.28200   38.92040    9.32414    27.91045    4.35276   36.74662   13.12172    28.22862    0.97824    1.00480    1.00700    0.95434    0.98586    0.96090  758.18182    4.70000    4.72500   36.58781
