# © ООО НПП ГА «Луч», 2008 - 2018/1.0.349.0.230602/CНГ УБР-1
~VERSION INFORMATION
VERS     .                               2.0:CWLS LAS VERSION
WRAP     .                                NO: One line per depth step
~WELL INFORMATION
#    MNEM.UNIT                     DATA TYPE:INFORMATION
#========.==================================:=========================================
STRT     .M                           3103.4:FIRST DEPTH IN FILE
STOP     .M                             3700:LAST DEPTH IN FILE
STEP     .M                              0.2:DEPTH INCREMENT
NULL     .                           -999.25:NULL VALUES
DATE     .                        13/10/2045:Дата каротажа
DRVD     .                   :Наименование драйвера прибора
SRVC     .                          :Сервисная компания
COMP     .                   :Оператор месторожения
FLD      .                1:Название месторождения
CLST     .                                1:Номер куста
WELL     .                       1:Номер скважины
OPRT     .                          :ФИО оператора
~CURVE INFORMATION
#    MNEM.UNIT                      API CODE:CURVE DESCRIPTION
#========.==================================:=========================================
DEPT     .M                                 :DEPT
SPEE     .M/H                               :Скорость, м/час - 12.326 м.
IPRS     .МПа                               :Давление внутритрубное - 19.116 м.
RGR      .имп/мин                           :Счет интегрального ГК, имп/мин - 14.601 м.
GR       .мкР/ч                             :Естественная гамма-активность, мкР/ч - 14.601 м.
GR_AVG   .мкР/ч                             :Естественная гамма-активность, мкР/ч - 14.601 м.
RNTN     .имп/мин                           :Счет по каналу малого зонда ННКт, имп./мин. - 11.506 м.
RFTN     .имп/мин                           :Счет по каналу большого зонда ННКт,  имп./мин. - 11.506 м.
NTNL     .у.е.                              :Малый зонд ННКт, у.е. - 11.506 м.
FTNL     .у.е.                              :Большой зонд ННКт, у.е. - 11.506 м.
TRNP     .%                                 :Кажущиеся пористость по ННКТ KNNA+KNNB*A+KNNC*A*A, где A=NTNL/FTNL., % - 11.506 м.
RSDL     .имп/мин                           :Счёт, ближний зонд ГГКП, имп/мин - 10.766 м.
RLDL     .имп/мин                           :Счёт, дальний зонд ГГКП, имп/мин - 10.766 м.
RHOB     .г/см3                             :Плотность, г/см3 - 10.766 м.
RHOB_POST.g/cm3                             :Плотность, г/см3 - 10.766 м.
RAD1     .мм                                :Радиус 1 профилемера, мм - 10.283 м.
RAD2     .мм                                :Радиус 2 профилемера, мм - 10.283 м.
RAD3     .мм                                :Радиус 3 профилемера, мм - 10.283 м.
CALI     .мм                                :Диаметр скважины, мм - 10.283 м.
PHL      .град                              :Разность фаз по зонду И 0.35 И 1.05 Г L=1.4м 0.88МГц, град - 8.154 м.
ROPL     .Омм                               :Кажущееся сопротивление зонда И 0.35 И 1.05 Г, L=1.4м 0.88МГц, Омм - 8.154 м.
PHH      .град                              :Разность фаз по зонду И 0.175 И 0.525 Г,  L=0.7м 3.505МГц, град - 8.504 м.
ROPH     .Омм                               :Кажущееся сопротивление зонда И 0.175 И 0.525 Г, L=0.7м 3.505МГц, Омм - 8.504 м.
PHLD     .град                              :Разность фаз по зонду И 0.175 И 0.875 Г, L=1.05м 0.88МГц, град - 8.504 м.
ROPLD    .Омм                               :Кажущееся сопротивление зонда И 0.175 И 0.875 Г, L=1.05м 0.88МГц, Омм - 8.504 м.
PHHD     .град                              :Разность фаз по зонду И 0.35 И 0.7 Г, L=1.05м 3.505МГц, град - 8.154 м.
ROPHD    .Омм                               :Кажущееся сопротивление зонда И 0.35 И 0.7 Г, L=1.05м 3.505МГц, Омм - 8.154 м.
PHLE     .град                              :Разность фаз по зонду И 0.525 И 0.875 Г, L=1.4м 0.88МГц, град - 8.154 м.
ROPLE    .Омм                               :Кажущееся сопротивление зонда И 0.525 И 0.875 Г, L=1.4м 0.88МГц, Омм - 8.154 м.
PHHE     .град                              :Разность фаз по зонду И 0.525 И 0.525 Г, L=1.05м 3.505МГц, град - 8.154 м.
ROPHE    .Омм                               :Кажущееся сопротивление зонда И 0.525 И 0.525 Г, L=1.05м 3.505МГц, Омм - 8.154 м.
AL       .                                  :Отношение амплитуд, зонд И 0.35 И 1.05 Г, L=1.4м 0.88МГц, отношение амплитуд - 8.154 м.
AH       .                                  :Отношение амплитуд, зонд И 0.175 И 0.525 Г, L=0.7м 3.505МГц, отношение амплитуд - 8.504 м.
ALD      .                                  :Отношение амплитуд, зонд И 0.175 И 0.875 Г,  L=1.05м 0.88МГц, отношение амплитуд - 8.504 м.
AHD      .                                  :Отношение амплитуд, зонд И 0.35 И 0.7 Г, L=1.05м 3.505МГц, отношение амплитуд - 8.154 м.
ALE      .                                  :Отношение амплитуд, зонд И 0.525 И 0.875 Г, L=1.4м 0.88МГц, отношение амплитуд - 8.154 м.
AHE      .                                  :Отношение амплитуд, зонд И 0.525 И 0.525 Г, L=1.05м 3.505МГц, отношение амплитуд - 8.154 м.
RGR_VIKPB.имп/мин                           :Счет интегрального ГК, имп/мин - 9.049 м.
GR_VIKPB .мкР/ч                             :Естественная гамма-активность, мкР/ч - 9.049 м.
GR_AVG_VIKPB.мкР/ч                             :Естественная гамма-активность, мкР/ч - 9.049 м.
OPRS     .МПа                               :Давление затрубное - 8.337 м.
~PARAMETER INFORMATION BLOCK
#    MNEM.UNIT                      API CODE:CURVE DESCRIPTION
#========.==================================:=========================================

~OTHER INFORMATION


~A           SPEE       IPRS        RGR         GR     GR_AVG         RNTN       RFTN       NTNL       FTNL       TRNP          RSDL         RLDL       RHOB  RHOB_POST       RAD1    RAD2    RAD3       CALI        PHL        ROPL        PHH       ROPH       PHLD      ROPLD       PHHD       ROPHD       PHLE      ROPLE       PHHE       ROPHE         AL         AH        ALD        AHD        ALE        AHE  RGR_VIKPB   GR_VIKPB _AVG_VIKPB       OPRS
# ...
3207.8   40.00000   40.20000 2424.00000    9.78000    9.10000  96435.00000 1215.00000    2.56800    5.48775   39.37500 1564260.00000 206385.00000    2.45000    2.45518   64.53333    0.00    0.00  131.55000    2.35600    52.08260    3.59000   30.99400    1.03000   50.41443    8.39000    32.24440    3.43600   49.22480   12.20800    31.06200    0.98180    1.00171    1.00800    0.96340    0.99060    0.96560  830.00000    5.08333    4.95000   33.91100
3208.0   36.00000   40.76667 2340.00000    9.44000    8.60000  92748.00000 1092.00000    2.46980    4.93220   41.28000 1566672.00000 215868.00000    2.42200    2.42291   65.56667    0.00    0.00  135.83333    2.13167    58.70008    3.72429   29.60557    1.08429   47.41429    7.34250    38.61608    3.38000   50.27375   11.79667    32.56767    0.98300    1.00157    1.00800    0.96433    0.99050    0.96433  650.00000    4.01667    4.05000   34.04443
3208.2   36.00000   41.24000 2220.00000    9.00000    8.22000  92352.00000 1140.00000    2.45900    5.14900   40.66000 1554705.00000 210450.00000    2.43500    2.43611   67.63333    0.00    0.00  135.80000    1.93429    65.99071    2.77667   43.31850    0.84000   64.48583    6.49143    45.60429    3.01714   57.64486   10.11429    39.79457    0.98286    1.00400    1.00817    0.96643    0.99029    0.96729  708.00000    4.38000    4.46000   33.95743
3208.4   45.00000   39.52857 1980.00000    8.00000    7.76667  91545.00000 1140.00000    2.43775    5.14900   39.45000 1546440.00000 213840.00000    2.42000    2.42026   66.60000    0.00    0.00  125.80000    1.82250    70.62700    3.25000   35.07900    0.96000   54.32825    6.01125    50.20725    2.92125   59.93088    9.69500    41.99413    0.98275    1.00475    1.00800    0.96925    0.99088    0.97000  804.00000    4.86000    4.80000   33.88000
3208.6   51.42857   39.79286 1920.00000    7.76000    8.08000  91680.00000 1368.00000    2.44140    6.17880   35.94000 1613976.00000 231360.00000    2.39000    2.39348   69.26000    0.00    0.00  137.64000    2.17000    57.58080    3.48000   32.32350    1.00250   51.94450    7.13800    40.09060    2.97200   58.80400    9.83200    41.32020    0.98340    1.00300    1.00750    0.96500    0.99140    0.96820  660.00000    4.05000    4.12500   33.89914
3208.8   40.00000   37.94118 1990.00000    8.03333    7.63333  89772.00000  924.00000    2.39060    4.17340   47.44000 1810032.00000 264420.00000    2.37600    2.37940   66.50000    0.00    0.00  137.72500    1.95857    67.39529    3.04200   44.85420    0.88000   65.90840    6.49571    48.36157    2.95000   60.15729    9.84571    42.12771    0.98300    1.00600    1.00760    0.96671    0.99057    0.97000  612.00000    3.84000    3.92000   34.09033
3209.0   36.00000   37.73333 1872.00000    7.58000    7.36000  86550.00000 1290.00000    2.30450    5.82650   33.40000 1700385.00000 243045.00000    2.39250    2.39562   65.06000    0.00    0.00  132.70000    1.29000   104.84300    1.60000   91.24025    0.52000  117.96375    4.06500    82.21100    2.40250   75.62225    7.86250    54.82375    0.98275    1.00525    1.00825    0.97175    0.99075    0.97350  720.00000    4.40000    4.28333   34.00233
3209.2   36.00000   37.79286 1580.00000    6.41667    7.17143  89832.00000 1116.00000    2.39180    5.04060   39.84000 1693608.00000 259116.00000    2.34200    2.34501   65.32000    0.00    0.00  132.22000    1.59500    82.46350    2.98200   39.46380    0.93000   56.69500    4.99000    63.72600    2.13000   86.92800    6.90000    64.45450    0.98250    1.00360    1.00840    0.96900    0.99050    0.97650  600.00000    3.60000    3.80000   34.12025
3209.4   36.00000   38.88571 1740.00000    7.06000    7.32500  92784.00000  996.00000    2.47080    4.49860   45.70000 1733688.00000 247380.00000    2.39600    2.39690   60.90000    0.00    0.00  120.72000    1.77000    73.26125    2.80400   42.46140    0.86600   61.30420    5.83750    52.26550    2.33750   78.57525    7.48000    59.00425    0.98300    1.00360    1.00800    0.96725    0.99000    0.97150  585.00000    3.65000    3.60000   33.91360
3209.6   51.42857   39.23333 1890.00000    7.65000    7.83750  90192.00000 1032.00000    2.40160    4.66120   43.26000 1611228.00000 238344.00000    2.36800    2.37008   69.00000    0.00    0.00  132.07500    1.57400    83.92000    2.45400   49.57040    0.76800   70.03940    5.07600    62.53200    2.47400   73.03620    8.04000    53.28820    0.98260    1.00560    1.00780    0.97000    0.99000    0.97280  675.00000    4.17500    3.90000   34.04133
3209.8    3.33571   38.53750 2040.00000    8.26000    8.00000  93156.00000 1128.00000    2.48080    5.09480   40.78000 1612710.00000 248775.00000    2.33750    2.33890   69.95000    0.00    0.00  137.95000    1.54500    85.49517    3.04500   37.98650    0.92000   57.12225    5.11500    62.08767    2.39167   75.97767    7.87000    54.75700    0.98333    1.00525    1.00750    0.97233    0.99050    0.97517  528.00000    3.24000    3.25000   33.90520
3210.0    0.61009   37.23621 2100.00000    8.48571    8.18333  91932.00000 1200.00000    2.44800    5.42000   38.08000 1635276.00000 267936.00000    2.29400    2.29403   68.86667    0.00    0.00  138.40000    2.09600    61.98760    4.77000   24.48575    1.32500   41.36725    7.17000    42.07980    2.89800   62.06320    9.79200    43.09840    0.98280    1.00425    1.00675    0.96940    0.98980    0.97340  510.00000    3.12500    3.38000   33.95000
3210.2   60.00000   37.85000 2256.00000    9.09000    9.15455  88800.00000 1416.00000    2.36440    6.39560   32.20000 1846920.00000 263292.00000    2.39600    2.39759   69.82000    0.00    0.00  142.80000    2.19250    65.38375    3.80667   17.75700    1.00333   33.06350    7.43250    47.23600    3.08750   60.39600   10.53000    41.64950    0.98250    1.00400    1.00800    0.96800    0.99000    0.97300  660.00000    4.06000    4.05000   34.01075
3210.4   45.00000   38.74000 2550.00000   10.30000   10.78333  88680.00000 1590.00000    2.36150    7.18150   28.75000 1605740.00000 229820.00000    2.39333    2.39464   67.17500    0.00    0.00  133.50000    0.34750 12668.80433   -1.72000  106.06000   -0.34500  751.30150    0.33750   169.46450    1.93750   97.41675    6.19500    74.25100    0.98400    1.01550    1.00850    0.98050    0.99075    0.98200  552.00000    3.42000    3.36000   34.02500
3210.6   36.00000   38.71429 2724.00000   11.00000   10.72000  95916.92308 1128.46154    2.55404    5.09688   41.95385 1660410.00000 244785.00000    2.37000    2.37261   65.01667    0.00    0.00  132.25000    1.32800   129.84920    2.31200   53.74060    0.74200   73.51700    4.15000   147.82360    1.22000  199.27300    3.28200   262.06700    0.98320    1.00680    1.00800    0.97160    0.99060    0.98440  555.00000    3.37500    3.48000   34.03250
3210.8   36.00000   38.98571 2520.00000   10.18571    9.91667  95010.00000 1230.00000    2.53000    5.55550   38.02500 1708690.00000 255300.00000    2.36000    2.36265   66.30000    0.00    0.00  127.22000    1.65333    79.03133    2.46750   49.10275    0.72250   75.07175    5.37000    57.96733    2.26333   81.12000    7.18667    61.43100    0.98233    1.00675    1.00750    0.96933    0.99000    0.97600  540.00000    3.35000    3.75000   33.86375
3211.0   32.72727   38.95000 2710.00000   10.96667   10.04286  94560.00000 1380.00000    2.51800    6.23300   34.80000 1703040.00000 251790.00000    2.37000    2.37048   65.26000    0.00    0.00  131.28000    1.62667    80.38833    2.50600   48.16520    0.77800   69.16560    5.30333    58.87033    2.41333   75.17000    7.81000    55.27400    0.98300    1.00580    1.00820    0.96967    0.99000    0.97533  648.00000    4.04000    3.95000   34.00925
3211.2   40.00000   39.18333 2293.71429    9.27286    9.02286  95496.00000 1380.00000    2.54280    6.23300   34.30000 1631160.00000 237982.50000    2.37750    2.38036   67.86000    0.00    0.00  133.20000    1.59800    82.09940    2.39400   50.92780    0.78400   68.34360    5.22200    60.02920    2.31000   79.12300    7.68800    56.38100    0.98260    1.00620    1.00820    0.97060    0.99060    0.97600  648.00000    4.00000    4.06000   33.99517
