# © ООО НПП ГА «Луч», 2008 - 2018/1.0.349.0.230602/CНГ УБР-1
~VERSION INFORMATION
VERS     .                               2.0:CWLS LAS VERSION
WRAP     .                                NO: One line per depth step
~WELL INFORMATION
#    MNEM.UNIT                     DATA TYPE:INFORMATION
#========.==================================:=========================================
STRT     .M                           3103.4:FIRST DEPTH IN FILE
STOP     .M                             3700:LAST DEPTH IN FILE
STEP     .M                              0.2:DEPTH INCREMENT
NULL     .                           -999.25:NULL VALUES
DATE     .                        13/10/2045:Дата каротажа
DRVD     .                   :Наименование драйвера прибора
SRVC     .                          :Сервисная компания
COMP     .                   :Оператор месторожения
FLD      .                1:Название месторождения
CLST     .                                1:Номер куста
WELL     .                       1:Номер скважины
OPRT     .                          :ФИО оператора
~CURVE INFORMATION
#    MNEM.UNIT                      API CODE:CURVE DESCRIPTION
#========.==================================:=========================================
DEPT     .M                                 :DEPT
SPEE     .M/H                               :Скорость, м/час - 12.326 м.
IPRS     .МПа                               :Давление внутритрубное - 19.116 м.
RGR      .имп/мин                           :Счет интегрального ГК, имп/мин - 14.601 м.
GR       .мкР/ч                             :Естественная гамма-активность, мкР/ч - 14.601 м.
GR_AVG   .мкР/ч                             :Естественная гамма-активность, мкР/ч - 14.601 м.
RNTN     .имп/мин                           :Счет по каналу малого зонда ННКт, имп./мин. - 11.506 м.
RFTN     .имп/мин                           :Счет по каналу большого зонда ННКт,  имп./мин. - 11.506 м.
NTNL     .у.е.                              :Малый зонд ННКт, у.е. - 11.506 м.
FTNL     .у.е.                              :Большой зонд ННКт, у.е. - 11.506 м.
TRNP     .%                                 :Кажущиеся пористость по ННКТ KNNA+KNNB*A+KNNC*A*A, где A=NTNL/FTNL., % - 11.506 м.
RSDL     .имп/мин                           :Счёт, ближний зонд ГГКП, имп/мин - 10.766 м.
RLDL     .имп/мин                           :Счёт, дальний зонд ГГКП, имп/мин - 10.766 м.
RHOB     .г/см3                             :Плотность, г/см3 - 10.766 м.
RHOB_POST.g/cm3                             :Плотность, г/см3 - 10.766 м.
RAD1     .мм                                :Радиус 1 профилемера, мм - 10.283 м.
RAD2     .мм                                :Радиус 2 профилемера, мм - 10.283 м.
RAD3     .мм                                :Радиус 3 профилемера, мм - 10.283 м.
CALI     .мм                                :Диаметр скважины, мм - 10.283 м.
PHL      .град                              :Разность фаз по зонду И 0.35 И 1.05 Г L=1.4м 0.88МГц, град - 8.154 м.
ROPL     .Омм                               :Кажущееся сопротивление зонда И 0.35 И 1.05 Г, L=1.4м 0.88МГц, Омм - 8.154 м.
PHH      .град                              :Разность фаз по зонду И 0.175 И 0.525 Г,  L=0.7м 3.505МГц, град - 8.504 м.
ROPH     .Омм                               :Кажущееся сопротивление зонда И 0.175 И 0.525 Г, L=0.7м 3.505МГц, Омм - 8.504 м.
PHLD     .град                              :Разность фаз по зонду И 0.175 И 0.875 Г, L=1.05м 0.88МГц, град - 8.504 м.
ROPLD    .Омм                               :Кажущееся сопротивление зонда И 0.175 И 0.875 Г, L=1.05м 0.88МГц, Омм - 8.504 м.
PHHD     .град                              :Разность фаз по зонду И 0.35 И 0.7 Г, L=1.05м 3.505МГц, град - 8.154 м.
ROPHD    .Омм                               :Кажущееся сопротивление зонда И 0.35 И 0.7 Г, L=1.05м 3.505МГц, Омм - 8.154 м.
PHLE     .град                              :Разность фаз по зонду И 0.525 И 0.875 Г, L=1.4м 0.88МГц, град - 8.154 м.
ROPLE    .Омм                               :Кажущееся сопротивление зонда И 0.525 И 0.875 Г, L=1.4м 0.88МГц, Омм - 8.154 м.
PHHE     .град                              :Разность фаз по зонду И 0.525 И 0.525 Г, L=1.05м 3.505МГц, град - 8.154 м.
ROPHE    .Омм                               :Кажущееся сопротивление зонда И 0.525 И 0.525 Г, L=1.05м 3.505МГц, Омм - 8.154 м.
AL       .                                  :Отношение амплитуд, зонд И 0.35 И 1.05 Г, L=1.4м 0.88МГц, отношение амплитуд - 8.154 м.
AH       .                                  :Отношение амплитуд, зонд И 0.175 И 0.525 Г, L=0.7м 3.505МГц, отношение амплитуд - 8.504 м.
ALD      .                                  :Отношение амплитуд, зонд И 0.175 И 0.875 Г,  L=1.05м 0.88МГц, отношение амплитуд - 8.504 м.
AHD      .                                  :Отношение амплитуд, зонд И 0.35 И 0.7 Г, L=1.05м 3.505МГц, отношение амплитуд - 8.154 м.
ALE      .                                  :Отношение амплитуд, зонд И 0.525 И 0.875 Г, L=1.4м 0.88МГц, отношение амплитуд - 8.154 м.
AHE      .                                  :Отношение амплитуд, зонд И 0.525 И 0.525 Г, L=1.05м 3.505МГц, отношение амплитуд - 8.154 м.
RGR_VIKPB.имп/мин                           :Счет интегрального ГК, имп/мин - 9.049 м.
GR_VIKPB .мкР/ч                             :Естественная гамма-активность, мкР/ч - 9.049 м.
GR_AVG_VIKPB.мкР/ч                             :Естественная гамма-активность, мкР/ч - 9.049 м.
OPRS     .МПа                               :Давление затрубное - 8.337 м.
~PARAMETER INFORMATION BLOCK
#    MNEM.UNIT                      API CODE:CURVE DESCRIPTION
#========.==================================:=========================================

~OTHER INFORMATION


~A           SPEE       IPRS        RGR         GR     GR_AVG         RNTN       RFTN       NTNL       FTNL       TRNP          RSDL         RLDL       RHOB  RHOB_POST       RAD1    RAD2    RAD3       CALI        PHL        ROPL        PHH       ROPH       PHLD      ROPLD       PHHD       ROPHD       PHLE      ROPLE       PHHE       ROPHE         AL         AH        ALD        AHD        ALE        AHE  RGR_VIKPB   GR_VIKPB _AVG_VIKPB       OPRS
# ...
3686.6   24.00000 -999.25000 -999.25000 -999.25000 -999.25000  87792.00000  984.00000    2.33780    4.44440   44.32000 1605292.50000 207270.00000    2.46875    2.47126   72.30000    0.00    0.00  143.98333    2.74333    44.13644    5.23143   19.84843    1.20143   44.08171   10.41778    24.44922    4.09111   39.68300   16.21222    21.17311    0.99100    1.01243    1.01143    0.96800    1.00200    0.97556 1945.71429   11.95714   11.84286   36.44767
3686.8   25.71429 -999.25000 -999.25000 -999.25000 -999.25000  88590.00000 1140.00000    2.35913    5.14900   38.52500 1673526.66667 208726.66667    2.49556    2.49702   67.06000    0.00    0.00  137.58000    2.88286    41.08386    6.02667   15.76733    1.42667   34.27083   11.24143    21.63186    4.02571   40.74543   16.15143    21.41814    0.98971    1.00950    1.01117    0.96657    1.00214    0.97686 2016.00000   12.36000   12.05000   36.53988
3687.0   27.69231 -999.25000 -999.25000 -999.25000 -999.25000  90120.00000 1132.50000    2.39975    5.11513   40.36250 1658406.00000 207018.00000    2.49700    2.49639   71.13333    0.00    0.00  144.35556    2.98286    39.14929    5.71500   16.94625    1.36750   36.06150   11.57000    20.64857    4.23429   37.96086   17.16143    19.54257    0.98986    1.00950    1.01075    0.96871    1.00186    0.97943 1930.00000   11.83333   12.25000   36.41080
3687.2   22.50000 -999.25000 -999.25000 -999.25000 -999.25000  93008.57143 1200.00000    2.47643    5.42000   39.34286 1608640.00000 200270.00000    2.50000    2.49837   69.33000    0.00    0.00  140.72000    2.99200    38.98740    5.50167   17.86567    1.29000   38.84600   11.36400    21.15280    4.38600   36.30860   17.42800    19.11740    0.98980    1.01067    1.01200    0.96440    1.00120    0.97200 2064.00000   12.70000   12.52222   36.43600
3687.4   18.94737 -999.25000 -999.25000 -999.25000 -999.25000  93882.85714 1182.85714    2.49986    5.34257   38.92857 1589660.00000 197880.00000    2.49667    2.49848   73.65714    0.00    0.00  143.34286    3.25600    35.17920    6.60167   13.94133    1.53167   31.54200   12.19000    19.16660    4.58400   34.33780   17.82400    18.53000    0.98980    1.00867    1.01133    0.96520    1.00040    0.97420 1793.33333   11.00000   11.22222   36.44017
3687.6   27.69231 -999.25000 -999.25000 -999.25000 -999.25000  93780.00000 1217.14286    2.49729    5.49743   38.55714 1519490.00000 185800.00000    2.51000    2.51175   57.84000    0.00    0.00  131.56000    3.29286    34.63643    6.25875   15.02838    1.41750   34.71725   12.80286    17.84586    4.63571   33.85543   18.58714    17.47557    0.98900    1.00863    1.01200    0.96086    1.00029    0.96971 1940.00000   11.91111   11.89000   36.49100
3687.8   15.00000 -999.25000 -999.25000 -999.25000 -999.25000  92710.00000 1190.00000    2.46883    5.37483   38.18333 1566352.50000 187642.50000    2.52500    2.52701   72.56250    0.00    0.00  144.75000    2.98857    39.06186    5.53000   17.69257    1.27000   39.33729   11.51000    20.78429    4.54286   34.74129   18.23143    17.95557    0.99000    1.01000    1.01214    0.96529    1.00143    0.97314 1910.00000   11.75000   11.71667   36.50417
3688.0 -999.25000 -999.25000 -999.25000 -999.25000 -999.25000  91680.00000 1133.33333    2.44122    5.11889   40.11111 1604442.85714 190465.71429    2.53143    2.53377   65.12500    0.00    0.00  127.10000    2.96125    39.48175    5.67000   17.12900    1.29111   38.61056   11.26125    21.42750    4.27000   37.59588   17.16625    19.53713    0.98963    1.00900    1.01233    0.96600    1.00163    0.97375 2050.00000   12.68333   12.82000   36.50514
3688.2 -999.25000 -999.25000 -999.25000 -999.25000 -999.25000  90165.00000 1207.50000    2.40088    5.45388   37.61250 1612110.00000 194287.50000    2.52375    2.52254   56.25714    0.00    0.00  126.98571    3.03500    38.33633    6.07000   15.69420    1.40800   35.16060   11.71333    20.26933    4.30333   37.23383   17.34167    19.26317    0.98900    1.00870    1.01220    0.96583    1.00167    0.97467 2066.66667   12.73333   12.78889   36.47150
3688.4 -999.25000 -999.25000 -999.25000 -999.25000 -999.25000  91400.00000 1230.00000    2.43383    5.55550   36.88333 1552308.00000 184632.00000    2.53600    2.53234   69.71250    0.00    0.00  130.50000    3.28714    34.77329    6.27200   14.94060    1.51200   32.00480   12.49143    18.51857    4.56429   34.53043   18.14286    18.07700    0.98957    1.00880    1.01200    0.96486    1.00114    0.97343 2130.00000   13.10000   12.70000   36.51920
3688.6 -999.25000 -999.25000 -999.25000 -999.25000 -999.25000  95091.42857 1248.57143    2.53214    5.63938   38.36190 1550348.57143 192188.57143    2.50429    2.50156   70.04000    0.00    0.00  137.50000    3.39800    33.30400    6.54667   14.09283    1.52500   31.68433   12.95100    17.54610    4.80600   32.31340   19.03600    16.88510    0.98930    1.00933    1.01233    0.96630    1.00140    0.97390 2026.66667   12.42222   12.78889   36.49320
3688.8 -999.25000 -999.25000 -999.25000 -999.25000 -999.25000   -999.25000 -999.25000 -999.25000 -999.25000 -999.25000 1627788.00000 203100.00000    2.50200    2.49674   69.76250    0.00    0.00  141.45000    3.31200    34.37980    6.44667   14.38967    1.45889   33.40844   12.71600    18.01740    4.78800   32.46820   19.00800    16.91920    0.98860    1.00989    1.01144    0.96720    1.00140    0.97440 2262.85714   13.88571   13.51429   36.42700
3689.0 -999.25000 -999.25000 -999.25000 -999.25000 -999.25000   -999.25000 -999.25000 -999.25000 -999.25000 -999.25000 1655802.00000 207024.00000    2.49600    2.49520   68.58571    0.00    0.00  138.60000    3.21000    35.74017    6.13889   15.38556    1.41333   34.69489   12.42000    18.64167    4.74333   32.85883   19.00667    16.91983    0.98917    1.01044    1.01200    0.96733    1.00100    0.97483 2082.85714   12.85714   12.67143   36.49344
3689.2 -999.25000 -999.25000 -999.25000 -999.25000 -999.25000   -999.25000 -999.25000 -999.25000 -999.25000 -999.25000 1595940.00000 192270.00000    2.52500    2.52281   68.42857    0.00    0.00  140.21429    3.19889    35.91811    6.69625   13.71500    1.51750   31.92900   12.32556    18.84989    4.68444   33.39611   18.82778    17.15200    0.98933    1.01063    1.01163    0.96667    1.00078    0.97567 2025.00000   12.45000   12.60000   36.55220
3689.4 -999.25000 -999.25000 -999.25000 -999.25000 -999.25000   -999.25000 -999.25000 -999.25000 -999.25000 -999.25000 1580134.28571 195060.00000    2.50286    2.50468   72.96250    0.00    0.00  146.02500    3.45500    32.64720    7.03429   12.81514    1.66286   28.61414   13.43800    16.63610    4.91100   31.43480   19.62900    16.16550    0.98870    1.01100    1.01129    0.96880    1.00010    0.97830 1911.42857   11.81429   11.84286   36.55770
3689.6 -999.25000 -999.25000 -999.25000 -999.25000 -999.25000   -999.25000 -999.25000 -999.25000 -999.25000 -999.25000    -999.25000   -999.25000 -999.25000 -999.25000   72.88571    0.00    0.00  140.91429    3.18500    36.11740    6.03400   15.74340    1.37600   35.85400   12.65800    18.15280    4.80700   32.31760   19.60300    16.19560    0.98890    1.01000    1.01140    0.96670    1.00030    0.97640 1960.00000   12.08333   12.12000   36.48383
3689.8 -999.25000 -999.25000 -999.25000 -999.25000 -999.25000   -999.25000 -999.25000 -999.25000 -999.25000 -999.25000    -999.25000   -999.25000 -999.25000 -999.25000   71.64444    0.00    0.00  140.41111    3.07833    37.64933    5.90625   16.22013    1.34875   36.70313   11.91333    19.77583    4.60333   34.15900   18.48500    17.61400    0.98850    1.00950    1.01125    0.96667    0.99933    0.97567 2014.28571   12.27143   12.50000   36.50060
3690.0 -999.25000 -999.25000 -999.25000 -999.25000 -999.25000   -999.25000 -999.25000 -999.25000 -999.25000 -999.25000    -999.25000   -999.25000 -999.25000 -999.25000   72.29231    0.00    0.00  142.23077    3.17000    36.30380    6.17625   15.47500    1.47500   33.34613   11.96000    19.67740    4.51200   35.04300   18.04400    18.21820    0.98840    1.00750    1.00988    0.96540    1.00020    0.97400 2151.42857   13.18571   12.74286   36.50886
