# © ООО НПП ГА «Луч», 2008 - 2018/1.0.349.0.230602/CНГ УБР-1
~VERSION INFORMATION
VERS     .                               2.0:CWLS LAS VERSION
WRAP     .                                NO: One line per depth step
~WELL INFORMATION
#    MNEM.UNIT                     DATA TYPE:INFORMATION
#========.==================================:=========================================
STRT     .M                           3103.4:FIRST DEPTH IN FILE
STOP     .M                             3700:LAST DEPTH IN FILE
STEP     .M                              0.2:DEPTH INCREMENT
NULL     .                           -999.25:NULL VALUES
DATE     .                        13/10/2045:Дата каротажа
DRVD     .                   :Наименование драйвера прибора
SRVC     .                          :Сервисная компания
COMP     .                   :Оператор месторожения
FLD      .                1:Название месторождения
CLST     .                                1:Номер куста
WELL     .                       1:Номер скважины
OPRT     .                          :ФИО оператора
~CURVE INFORMATION
#    MNEM.UNIT                      API CODE:CURVE DESCRIPTION
#========.==================================:=========================================
DEPT     .M                                 :DEPT
SPEE     .M/H                               :Скорость, м/час - 12.326 м.
IPRS     .МПа                               :Давление внутритрубное - 19.116 м.
RGR      .имп/мин                           :Счет интегрального ГК, имп/мин - 14.601 м.
GR       .мкР/ч                             :Естественная гамма-активность, мкР/ч - 14.601 м.
GR_AVG   .мкР/ч                             :Естественная гамма-активность, мкР/ч - 14.601 м.
RNTN     .имп/мин                           :Счет по каналу малого зонда ННКт, имп./мин. - 11.506 м.
RFTN     .имп/мин                           :Счет по каналу большого зонда ННКт,  имп./мин. - 11.506 м.
NTNL     .у.е.                              :Малый зонд ННКт, у.е. - 11.506 м.
FTNL     .у.е.                              :Большой зонд ННКт, у.е. - 11.506 м.
TRNP     .%                                 :Кажущиеся пористость по ННКТ KNNA+KNNB*A+KNNC*A*A, где A=NTNL/FTNL., % - 11.506 м.
RSDL     .имп/мин                           :Счёт, ближний зонд ГГКП, имп/мин - 10.766 м.
RLDL     .имп/мин                           :Счёт, дальний зонд ГГКП, имп/мин - 10.766 м.
RHOB     .г/см3                             :Плотность, г/см3 - 10.766 м.
RHOB_POST.g/cm3                             :Плотность, г/см3 - 10.766 м.
RAD1     .мм                                :Радиус 1 профилемера, мм - 10.283 м.
RAD2     .мм                                :Радиус 2 профилемера, мм - 10.283 м.
RAD3     .мм                                :Радиус 3 профилемера, мм - 10.283 м.
CALI     .мм                                :Диаметр скважины, мм - 10.283 м.
PHL      .град                              :Разность фаз по зонду И 0.35 И 1.05 Г L=1.4м 0.88МГц, град - 8.154 м.
ROPL     .Омм                               :Кажущееся сопротивление зонда И 0.35 И 1.05 Г, L=1.4м 0.88МГц, Омм - 8.154 м.
PHH      .град                              :Разность фаз по зонду И 0.175 И 0.525 Г,  L=0.7м 3.505МГц, град - 8.504 м.
ROPH     .Омм                               :Кажущееся сопротивление зонда И 0.175 И 0.525 Г, L=0.7м 3.505МГц, Омм - 8.504 м.
PHLD     .град                              :Разность фаз по зонду И 0.175 И 0.875 Г, L=1.05м 0.88МГц, град - 8.504 м.
ROPLD    .Омм                               :Кажущееся сопротивление зонда И 0.175 И 0.875 Г, L=1.05м 0.88МГц, Омм - 8.504 м.
PHHD     .град                              :Разность фаз по зонду И 0.35 И 0.7 Г, L=1.05м 3.505МГц, град - 8.154 м.
ROPHD    .Омм                               :Кажущееся сопротивление зонда И 0.35 И 0.7 Г, L=1.05м 3.505МГц, Омм - 8.154 м.
PHLE     .град                              :Разность фаз по зонду И 0.525 И 0.875 Г, L=1.4м 0.88МГц, град - 8.154 м.
ROPLE    .Омм                               :Кажущееся сопротивление зонда И 0.525 И 0.875 Г, L=1.4м 0.88МГц, Омм - 8.154 м.
PHHE     .град                              :Разность фаз по зонду И 0.525 И 0.525 Г, L=1.05м 3.505МГц, град - 8.154 м.
ROPHE    .Омм                               :Кажущееся сопротивление зонда И 0.525 И 0.525 Г, L=1.05м 3.505МГц, Омм - 8.154 м.
AL       .                                  :Отношение амплитуд, зонд И 0.35 И 1.05 Г, L=1.4м 0.88МГц, отношение амплитуд - 8.154 м.
AH       .                                  :Отношение амплитуд, зонд И 0.175 И 0.525 Г, L=0.7м 3.505МГц, отношение амплитуд - 8.504 м.
ALD      .                                  :Отношение амплитуд, зонд И 0.175 И 0.875 Г,  L=1.05м 0.88МГц, отношение амплитуд - 8.504 м.
AHD      .                                  :Отношение амплитуд, зонд И 0.35 И 0.7 Г, L=1.05м 3.505МГц, отношение амплитуд - 8.154 м.
ALE      .                                  :Отношение амплитуд, зонд И 0.525 И 0.875 Г, L=1.4м 0.88МГц, отношение амплитуд - 8.154 м.
AHE      .                                  :Отношение амплитуд, зонд И 0.525 И 0.525 Г, L=1.05м 3.505МГц, отношение амплитуд - 8.154 м.
RGR_VIKPB.имп/мин                           :Счет интегрального ГК, имп/мин - 9.049 м.
GR_VIKPB .мкР/ч                             :Естественная гамма-активность, мкР/ч - 9.049 м.
GR_AVG_VIKPB.мкР/ч                             :Естественная гамма-активность, мкР/ч - 9.049 м.
OPRS     .МПа                               :Давление затрубное - 8.337 м.
~PARAMETER INFORMATION BLOCK
#    MNEM.UNIT                      API CODE:CURVE DESCRIPTION
#========.==================================:=========================================

~OTHER INFORMATION


~A           SPEE       IPRS        RGR         GR     GR_AVG         RNTN       RFTN       NTNL       FTNL       TRNP          RSDL         RLDL       RHOB  RHOB_POST       RAD1    RAD2    RAD3       CALI        PHL        ROPL        PHH       ROPH       PHLD      ROPLD       PHHD       ROPHD       PHLE      ROPLE       PHHE       ROPHE         AL         AH        ALD        AHD        ALE        AHE  RGR_VIKPB   GR_VIKPB _AVG_VIKPB       OPRS
# ...
3539.0   25.71429   42.17778 2587.50000   10.46250    9.94444  90270.00000  990.00000    2.40350    4.47150   43.50000 1647025.71429 232611.42857    2.40571    2.40454   64.80000    0.00    0.00  124.31429    2.46500    49.30925    2.26773   54.47880    0.87803   60.40961    5.34000    58.33350    3.41250   49.62700    7.61500    57.02675    0.97750    1.00755    1.00598    0.95900    0.98350    0.96625  685.71429    4.12857    4.01667   36.59025
3539.2   18.00000   42.28889 2466.66667    9.95556    9.62222  89117.14286  951.42857    2.37300    4.29729   45.25714 1629386.66667 225906.66667    2.41889    2.41829   65.30000    0.00    0.00  137.38333    2.62333    45.79000    1.88500   67.47100    0.77500   69.21350    5.81333    52.52467    3.45000   49.03400    7.78667    55.71133    0.97667    1.00850    1.00650    0.95700    0.98333    0.96533  540.00000    3.37778    3.43000   36.59417
3539.4   16.36364   41.88889 2433.33333    9.83333    9.77778  90042.85714  951.42857    2.39757    4.29729   45.40000 1611204.00000 219192.00000    2.43000    2.43239   68.70000    0.00    0.00  132.77500    2.67212    44.84379    2.13000   59.05422    0.84444   63.44744    5.93515    51.35024    3.54955   47.35112    8.22182    52.02644    0.97679    1.00622    1.00567    0.95448    0.98264    0.96105  660.00000    4.03333    4.03750   36.40700
3539.6   18.94737   41.63636 2665.00000   10.78333   10.23636  91500.00000  900.00000    2.43657    4.06500   48.45714 1746987.14286 245794.28571    2.40571    2.40737   53.73636    0.00    0.00  124.72727    2.82667    41.77833    3.01200   38.72460    1.05000   49.39080    6.61000    44.28067    3.63333   45.94967    8.50667    49.61267    0.97600    1.00420    1.00520    0.95367    0.98200    0.96067  560.00000    3.46667    3.66667   36.52967
3539.8   18.00000   41.98889 2500.00000   10.09167   10.33333  90420.00000  817.50000    2.40775    3.69238   52.80000 1719075.00000 256890.00000    2.36500    2.36254   67.46000    0.00    0.00  135.16000    3.02444    38.48144    3.26286   34.88429    1.11714   45.83286    7.18333    39.74000    3.86667   42.53422    9.43333    43.49211    0.97633    1.00429    1.00614    0.95200    0.98211    0.95711  670.00000    4.15000    3.92857   36.53750
3540.0   17.14286   42.26667 2442.00000    9.87000   10.03636  88772.72727  834.54545    2.36382    3.76936   51.09091 1692285.00000 249082.50000    2.37500    2.37381   67.05176    0.00    0.00  133.75176    2.83571    41.68014    2.46500   49.58188    0.93125   56.65913    6.59857    44.50243    3.94000   41.56357    9.82429    41.33757    0.97600    1.00600    1.00613    0.95200    0.98186    0.95557  636.00000    3.94000    4.02000   36.59500
3540.2   18.00000   42.10000 2606.66667   10.54444   10.62500  85380.00000  840.00000    2.27364    3.79400   48.79091 1741042.50000 256080.00000    2.37250    2.37433   68.60000    0.00    0.00  137.60000    2.85286    41.96471    3.00571 1938.19757    1.04429   71.70114    6.58857    46.45857    3.85143   43.38757    9.48429    44.77086    0.97586    1.00514    1.00643    0.95257    0.98171    0.95657  591.42857    3.57143    3.58333   36.60013
3540.4   24.00000   42.02222 2520.00000   10.17143    9.98571  84233.33333  960.00000    2.24311    4.33600   43.17778 1674750.00000 243190.00000    2.38333    2.38387   71.37143    0.00    0.00  138.84286    2.20667    56.45417    0.80429  162.70780    0.55429  208.55100    4.21833    79.94400    3.21667   53.36367    6.97833    63.68950    0.97600    1.01157    1.00686    0.95833    0.98267    0.96317  735.00000    4.57500    4.47500   36.61050
3540.6   30.00000   42.20000 2352.00000    9.50000   10.53333  87240.00000  930.00000    2.32300    4.20050   46.17000 1629885.00000 233475.00000    2.39000    2.39400   66.78333    0.00    0.00  129.18333    2.09833    60.72867    2.27500   54.65833    0.92500   56.89367    3.74000    98.24000    3.12167   55.76667    6.60333    70.36150    0.97667    1.00750    1.00667    0.95950    0.98300    0.96383  577.50000    3.65000    3.78750   36.54843
3540.8   21.17647   42.36000 2632.50000   10.65000   10.20000  88740.00000  858.00000    2.36310    3.87530   49.54000 1631746.66667 231073.33333    2.40000    2.40254   66.10000    0.00    0.00  132.22500    2.66250    45.17725    2.64333   47.76900    1.02333   51.43250    5.89875    52.37425    3.23250   53.96763    6.92500    68.56188    0.97675    1.00667    1.00667    0.95688    0.98313    0.96663  567.27273    3.52727    3.50000   36.57100
3541.0   18.94737   42.12222 2287.50000    9.25000    9.55714  88733.33333  893.33333    2.36278    4.03489   47.55556 1689321.81818 250549.09091    2.36636    2.36814   71.48750    0.00    0.00  130.01250    2.94857    40.22043    1.97500   69.80567    0.81667   68.82883    6.94143    43.56157    3.83286   43.26086    9.14857    45.97486    0.97657    1.00917    1.00650    0.95229    0.98229    0.95843  615.00000    3.77500    3.72500   36.60571
3541.2   21.17647   41.90909 2520.00000   10.21429   10.27143  88440.00000  940.00000    2.35500    4.24567   46.80000 1785080.00000 249333.33333    2.40667    2.41278   69.05000    0.00    0.00  135.05000    2.60429    46.47171    2.20000  153.31000    0.85250  105.98125    5.76571    53.85814    3.56143   47.14900    8.26571    51.60329    0.97614    1.00763    1.00650    0.95614    0.98243    0.96257  559.53488    3.41395    3.42442   36.43675
3541.4   21.17647   42.01111 2314.28571    9.35714    9.75714  88830.00000  885.00000    2.36525    3.99725   47.76250 1661820.00000 240203.07692    2.38538    2.38730   68.21000    0.00    0.00  135.22000    2.39600    51.24800    2.53917   49.80025    0.97583   54.52950    4.97000    65.15360    3.52400   48.02560    8.15600    53.23580    0.97680    1.00525    1.00642    0.95920    0.98300    0.96280  480.00000    2.80000    3.20000   36.51075
3541.6   21.17647   42.28000 2426.66667    9.81111    9.93000  89126.66667  906.66667    2.37333    4.09511   47.17778 1695696.00000 235362.00000    2.41600    2.41746   67.61111    0.00    0.00  138.70000    2.70571    44.09043    2.18750   59.51400    0.87250   61.09450    6.09286    49.31014    3.34857   51.19043    7.47714    59.94214    0.97586    1.00875    1.00650    0.95414    0.98286    0.96314  564.00000    3.50000    3.52000   36.56836
3541.8   20.00000   42.43333 2508.00000   10.15000    9.90000  87953.33333  820.00000    2.34200    3.70367   52.01111 1684566.66667 242873.33333    2.38778    2.38919   68.73333    0.00    0.00  141.30000    2.47091    49.27045    2.05471   61.48355    0.83153   64.27564    5.27000    59.57627    3.46909   48.64418    7.92545    54.29200    0.97655    1.00829    1.00639    0.95718    0.98273    0.96082  667.50000    4.08750    3.97500   36.34260
3542.0   18.00000   42.13750 2674.28571   10.81429   10.17143  88200.00000  886.66667    2.34856    4.00478   48.22222 1664940.00000 235130.00000    2.40000    2.40458   61.00000    0.00    0.00  134.02500    2.47200    49.14980    2.12000   58.77800    0.89500   58.92450    5.13000    61.41320    3.30800   51.62140    7.26800    60.77000    0.97620    1.00850    1.00650    0.95720    0.98240    0.96500  517.50000    3.13750    3.23750   36.57131
3542.2   18.00000   42.05455 2707.50000   10.95000   10.80000  88940.00000  846.66667    2.36822    3.82411   50.65556 1650248.57143 234960.00000    2.39571    2.39852   67.87000    0.00    0.00  135.65000    2.60190    46.24681    2.15857   57.86143    0.87000   60.94529    5.71738    53.58031    3.43750   49.20450    7.80488    55.36618    0.97610    1.00857    1.00614    0.95508    0.98246    0.96213  532.50000    3.23750    3.27500   36.29967
3542.4   18.00000   41.10000 3091.57895   12.50000   12.35946  89348.57143  891.42857    2.37914    4.02629   48.45714 1628914.28571 229620.00000    2.40429    2.40595   69.73750    0.00    0.00  137.80000    2.63500    45.54825    2.36857   51.61529    0.90857   58.05043    5.78000    52.89400    3.55250   47.27400    8.07250    53.14700    0.97575    1.00757    1.00600    0.95625    0.98275    0.96375  570.00000    3.55000    3.58182   36.47713
