# © ООО НПП ГА «Луч», 2008 - 2018/1.0.349.0.230602/CНГ УБР-1
~VERSION INFORMATION
VERS     .                               2.0:CWLS LAS VERSION
WRAP     .                                NO: One line per depth step
~WELL INFORMATION
#    MNEM.UNIT                     DATA TYPE:INFORMATION
#========.==================================:=========================================
STRT     .M                           3103.4:FIRST DEPTH IN FILE
STOP     .M                             3700:LAST DEPTH IN FILE
STEP     .M                              0.2:DEPTH INCREMENT
NULL     .                           -999.25:NULL VALUES
DATE     .                        13/10/2045:Дата каротажа
DRVD     .                   :Наименование драйвера прибора
SRVC     .                          :Сервисная компания
COMP     .                   :Оператор месторожения
FLD      .                1:Название месторождения
CLST     .                                1:Номер куста
WELL     .                       1:Номер скважины
OPRT     .                          :ФИО оператора
~CURVE INFORMATION
#    MNEM.UNIT                      API CODE:CURVE DESCRIPTION
#========.==================================:=========================================
DEPT     .M                                 :DEPT
SPEE     .M/H                               :Скорость, м/час - 12.326 м.
IPRS     .МПа                               :Давление внутритрубное - 19.116 м.
RGR      .имп/мин                           :Счет интегрального ГК, имп/мин - 14.601 м.
GR       .мкР/ч                             :Естественная гамма-активность, мкР/ч - 14.601 м.
GR_AVG   .мкР/ч                             :Естественная гамма-активность, мкР/ч - 14.601 м.
RNTN     .имп/мин                           :Счет по каналу малого зонда ННКт, имп./мин. - 11.506 м.
RFTN     .имп/мин                           :Счет по каналу большого зонда ННКт,  имп./мин. - 11.506 м.
NTNL     .у.е.                              :Малый зонд ННКт, у.е. - 11.506 м.
FTNL     .у.е.                              :Большой зонд ННКт, у.е. - 11.506 м.
TRNP     .%                                 :Кажущиеся пористость по ННКТ KNNA+KNNB*A+KNNC*A*A, где A=NTNL/FTNL., % - 11.506 м.
RSDL     .имп/мин                           :Счёт, ближний зонд ГГКП, имп/мин - 10.766 м.
RLDL     .имп/мин                           :Счёт, дальний зонд ГГКП, имп/мин - 10.766 м.
RHOB     .г/см3                             :Плотность, г/см3 - 10.766 м.
RHOB_POST.g/cm3                             :Плотность, г/см3 - 10.766 м.
RAD1     .мм                                :Радиус 1 профилемера, мм - 10.283 м.
RAD2     .мм                                :Радиус 2 профилемера, мм - 10.283 м.
RAD3     .мм                                :Радиус 3 профилемера, мм - 10.283 м.
CALI     .мм                                :Диаметр скважины, мм - 10.283 м.
PHL      .град                              :Разность фаз по зонду И 0.35 И 1.05 Г L=1.4м 0.88МГц, град - 8.154 м.
ROPL     .Омм                               :Кажущееся сопротивление зонда И 0.35 И 1.05 Г, L=1.4м 0.88МГц, Омм - 8.154 м.
PHH      .град                              :Разность фаз по зонду И 0.175 И 0.525 Г,  L=0.7м 3.505МГц, град - 8.504 м.
ROPH     .Омм                               :Кажущееся сопротивление зонда И 0.175 И 0.525 Г, L=0.7м 3.505МГц, Омм - 8.504 м.
PHLD     .град                              :Разность фаз по зонду И 0.175 И 0.875 Г, L=1.05м 0.88МГц, град - 8.504 м.
ROPLD    .Омм                               :Кажущееся сопротивление зонда И 0.175 И 0.875 Г, L=1.05м 0.88МГц, Омм - 8.504 м.
PHHD     .град                              :Разность фаз по зонду И 0.35 И 0.7 Г, L=1.05м 3.505МГц, град - 8.154 м.
ROPHD    .Омм                               :Кажущееся сопротивление зонда И 0.35 И 0.7 Г, L=1.05м 3.505МГц, Омм - 8.154 м.
PHLE     .град                              :Разность фаз по зонду И 0.525 И 0.875 Г, L=1.4м 0.88МГц, град - 8.154 м.
ROPLE    .Омм                               :Кажущееся сопротивление зонда И 0.525 И 0.875 Г, L=1.4м 0.88МГц, Омм - 8.154 м.
PHHE     .град                              :Разность фаз по зонду И 0.525 И 0.525 Г, L=1.05м 3.505МГц, град - 8.154 м.
ROPHE    .Омм                               :Кажущееся сопротивление зонда И 0.525 И 0.525 Г, L=1.05м 3.505МГц, Омм - 8.154 м.
AL       .                                  :Отношение амплитуд, зонд И 0.35 И 1.05 Г, L=1.4м 0.88МГц, отношение амплитуд - 8.154 м.
AH       .                                  :Отношение амплитуд, зонд И 0.175 И 0.525 Г, L=0.7м 3.505МГц, отношение амплитуд - 8.504 м.
ALD      .                                  :Отношение амплитуд, зонд И 0.175 И 0.875 Г,  L=1.05м 0.88МГц, отношение амплитуд - 8.504 м.
AHD      .                                  :Отношение амплитуд, зонд И 0.35 И 0.7 Г, L=1.05м 3.505МГц, отношение амплитуд - 8.154 м.
ALE      .                                  :Отношение амплитуд, зонд И 0.525 И 0.875 Г, L=1.4м 0.88МГц, отношение амплитуд - 8.154 м.
AHE      .                                  :Отношение амплитуд, зонд И 0.525 И 0.525 Г, L=1.05м 3.505МГц, отношение амплитуд - 8.154 м.
RGR_VIKPB.имп/мин                           :Счет интегрального ГК, имп/мин - 9.049 м.
GR_VIKPB .мкР/ч                             :Естественная гамма-активность, мкР/ч - 9.049 м.
GR_AVG_VIKPB.мкР/ч                             :Естественная гамма-активность, мкР/ч - 9.049 м.
OPRS     .МПа                               :Давление затрубное - 8.337 м.
~PARAMETER INFORMATION BLOCK
#    MNEM.UNIT                      API CODE:CURVE DESCRIPTION
#========.==================================:=========================================

~OTHER INFORMATION


~A           SPEE       IPRS        RGR         GR     GR_AVG         RNTN       RFTN       NTNL       FTNL       TRNP          RSDL         RLDL       RHOB  RHOB_POST       RAD1    RAD2    RAD3       CALI        PHL        ROPL        PHH       ROPH       PHLD      ROPLD       PHHD       ROPHD       PHLE      ROPLE       PHHE       ROPHE         AL         AH        ALD        AHD        ALE        AHE  RGR_VIKPB   GR_VIKPB _AVG_VIKPB       OPRS
# ...
3467.0   30.00000   41.38000 1609.09091    6.51818    6.20833 104700.00000 1208.57143    2.78800    5.45871   42.10000 1728960.00000 295224.00000    2.25800    2.26332   66.07143    0.00    0.00  136.22857    1.89000    67.56100    1.88500   68.74608    0.63167   87.96133    4.85000    65.90733    2.60000   68.83933    6.94667    63.92633    0.98133    1.00800    1.00833    0.95767    0.99000    0.96267  892.50000    5.38750    5.21429   36.18533
3467.2   36.00000   40.85333 1440.00000    5.82727    6.28000 105060.00000 1110.00000    2.79750    5.01350   46.36667 1764787.50000 309675.00000    2.24250    2.24303   67.72075    0.00    0.00  135.74906    1.90500    66.94075    2.39125   51.70225    0.76125   71.32050    4.88000    65.41600    2.66250   66.92250    7.25500    60.56300    0.98175    1.00825    1.00838    0.95775    0.98975    0.96200  787.50000    4.85000    4.87778   36.00408
3467.4   27.69231   40.36667 1688.57143    6.82143    6.16667 102697.50000 1057.50000    2.73463    4.77638   46.96250 1789390.00000 306690.00000    2.26000    2.26054   65.90000    0.00    0.00  135.92500    2.17643    57.39314    2.43143   54.98600    0.74571   77.59357    5.80571    52.81757    2.77786   63.70471    7.74071    55.99186    0.98179    1.00757    1.00871    0.95771    0.98993    0.96543  877.50000    5.38750    5.38571   35.98325
3467.6   30.00000   41.00000 1556.00000    6.30667    6.04286  97820.00000 1046.66667    2.60478    4.72744   45.58889 1820622.85714 315625.71429    2.25000    2.25204   64.35714    0.00    0.00  134.74286    2.04429    61.86143    2.38286   51.46871    0.74714   72.64229    5.25143    60.33929    2.85857   61.55900    8.06000    53.18229    0.98186    1.00729    1.00886    0.95871    0.98986    0.96471  831.42857    5.12857    5.20000   36.09350
3467.8   25.71429   41.07273 1425.00000    5.75833    6.03846  95295.00000 1365.00000    2.53775    6.16525   35.35000 1943400.00000 342700.00000    2.23500    2.23937   68.68333    0.00    0.00  135.25000    1.76000    73.52560    1.63111   82.98267    0.55000  104.48822    4.31200    76.70060    2.40400   75.88480    6.30400    72.81600    0.98140    1.00700    1.00867    0.95980    0.99000    0.96720  740.00000    4.56667    4.61667   36.11300
3468.0   22.50000   41.33636 1451.25000    5.86875    5.99333  97790.00000 1220.00000    2.60383    5.51033   40.16667 1937610.00000 343515.00000    2.23250    2.23538   58.50000    0.00    0.00  124.77143    1.87625    68.36275    2.66143   48.03829    0.79571   71.89271    4.75625    67.99263    2.60125   68.86613    7.12875    61.97275    0.98138    1.00643    1.00757    0.95975    0.98988    0.96625  934.28571    5.65714    5.64286   36.07878
3468.2    4.04494   41.20000 1478.57143    5.97857    5.96429  97720.00000 1160.00000    2.60200    5.23933   41.35000 1866487.50000 316425.00000    2.26375    2.26867   67.97143    0.00    0.00  136.95714    2.19111    57.35756    1.66000 1128.08550    0.52375  193.71738    5.80556    53.57278    2.70111   66.06289    7.38333    59.71200    0.98178    1.00925    1.00888    0.96056    0.99033    0.96622  910.00000    5.58333    5.43333   36.02229
3468.4    4.04494   41.33636 1647.27273    6.66364    6.53636  95796.00000  984.00000    2.55080    4.44440   48.12000 1795894.28571 306420.00000    2.26000    2.26389   63.50000    0.00    0.00  129.50000    1.51857    87.74257    1.47143  177.35443    0.50143  140.88271    3.42714   104.31857    2.46857   73.20243    6.63429    67.66600    0.98186    1.00871    1.00900    0.96343    0.98971    0.96914  850.00000    5.18333    5.23333   36.04689
3468.6   30.00000   41.13333 1629.49367    6.59241    6.50127  97860.00000 1266.66667    2.60578    5.72111   39.11111 1781955.00000 306405.00000    2.25500    2.25813   66.85714    0.00    0.00  128.64286    1.76000    73.51375    1.51167   87.32833    0.49333  114.52350    4.16875    80.38725    2.08625   89.39475    5.08125    94.21300    0.98163    1.00900    1.00817    0.95938    0.99050    0.96863  753.46154    4.63654    4.64231   35.98050
3468.8   21.17647   41.02222 1824.00000    7.36000    7.24000  94791.42857 1337.14286    2.52429    6.03943   36.01429 1806600.00000 309020.00000    2.26000    2.26203   66.23636    0.00    0.00  133.09091    1.80167    71.46967    1.75667   73.69917    0.56833   97.93783    4.25000    77.68467    2.36000   77.36517    6.09000    75.34400    0.98133    1.00983    1.00900    0.96100    0.99017    0.96800  860.00000    5.23333    5.32000   35.97950
3469.0   14.13897   41.65000 1894.28571    7.67143    7.76250 104220.00000 1119.03614    2.77522    5.05431   45.38193 1761625.71429 290854.28571    2.28571    2.28834   66.73333    0.00    0.00  133.16667    1.85000    69.51043    2.78377   45.22153    0.82453   67.28040    4.58571    71.26414    2.36286   77.23100    6.16857    74.46171    0.98157    1.00549    1.00828    0.95986    0.99014    0.96843  730.00000    4.43333    4.50000   36.02217
3469.2   14.09639   41.70000 1980.00000    8.00000    7.92500 105360.00000 1130.00000    2.80567    5.10383   45.91667 1752317.14286 299305.71429    2.26000    2.26309   70.28333    0.00    0.00  137.70000    2.22333    55.89700    2.01400   64.71500    0.62400   89.89180    5.86833    51.76033    2.71833   65.30050    7.50833    58.05900    0.98100    1.00620    1.00840    0.95783    0.98967    0.96700  847.50000    5.27500    5.30000   36.11626
3469.4   17.14286   40.29298 1808.57143    7.31429    7.47500 105440.00000 1040.00000    2.80767    4.69733   48.68333 1765122.85714 299785.71429    2.26714    2.26732   59.90000    0.00    0.00  133.80000    1.85192    69.54142    1.94500   65.70533    0.66000   83.48950    4.54462    72.44148    2.69827   65.94873    7.40712    59.14942    0.98187    1.00700    1.00900    0.95969    0.98979    0.96435  754.28571    4.71429    4.88571   35.92400
3469.6   15.00000   40.62000 1853.33333    7.47778    7.09375 101520.00000 1085.45455    2.70327    4.90264   46.16364 1820560.23529 313188.70588    2.25459    2.25778   71.74000    0.00    0.00  132.82000    1.79200    71.84740    1.71667   75.44967    0.54667  102.26267    4.44800    73.54780    2.42600   74.73940    6.38400    70.96460    0.98140    1.00833    1.00867    0.96220    0.98960    0.96660  820.00000    5.06667    4.98333   36.08113
3469.8   13.33333   41.22308 1836.00000    7.43500    7.49500  99387.69231 1038.46154    2.64646    4.69038   47.43077 1771596.00000 302220.00000    2.26200    2.26402   70.82222    0.00    0.00  139.36667    1.84429    69.63657    2.05125   61.39450    0.63250   87.39800    4.51571    72.27029    2.43143   74.52357    6.35857    71.31286    0.98171    1.00925    1.00850    0.96271    0.99000    0.96957  832.50000    5.12500    5.22500   36.08033
3470.0   13.33333   41.48333 1592.00000    6.44667    6.23125 100036.36364 1096.36364    2.66382    4.95191   44.91818 1809920.00000 311740.00000    2.25333    2.25687   56.45714    0.00    0.00  132.65714    1.82714    70.37814    1.62143   82.67357    0.53571  106.13629    4.35000    75.82243    2.42143   74.90286    6.26857    72.59500    0.98129    1.00943    1.00829    0.95971    0.99000    0.96814  804.00000    4.99000    4.88182   36.16114
3470.2   12.85714   41.15385 1549.09091    6.28182    6.16000 106044.00000 1224.00000    2.82370    5.52840   42.28000 1801273.33333 318400.00000    2.23444    2.23758   66.96747    0.00    0.00  135.03373    2.05667    61.50817    2.73000   47.61350    0.83500   67.31350    5.03500    63.90850    2.65833   67.24700    7.09000    62.68700    0.98033    1.00800    1.00850    0.95933    0.98933    0.96717  735.00000    4.57500    4.50000   36.13414
3470.4   13.84615   41.11000 1422.85714    5.75714    6.06667 106110.00000 1208.57143    2.82557    5.45871   43.37143 1844256.00000 326700.00000    2.23300    2.23598   70.58333    0.00    0.00  137.50000    2.11857    59.46229    1.51375  199.33400    0.48625  182.24938    5.40571    58.19843    2.64000   67.91414    7.01571    63.74914    0.98014    1.00825    1.00913    0.95871    0.98929    0.96700  660.00000    3.94000    4.00000   36.20767
