# © ООО НПП ГА «Луч», 2008 - 2018/1.0.349.0.230602/CНГ УБР-1
~VERSION INFORMATION
VERS     .                               2.0:CWLS LAS VERSION
WRAP     .                                NO: One line per depth step
~WELL INFORMATION
#    MNEM.UNIT                     DATA TYPE:INFORMATION
#========.==================================:=========================================
STRT     .M                           3103.4:FIRST DEPTH IN FILE
STOP     .M                             3700:LAST DEPTH IN FILE
STEP     .M                              0.2:DEPTH INCREMENT
NULL     .                           -999.25:NULL VALUES
DATE     .                        13/10/2045:Дата каротажа
DRVD     .                   :Наименование драйвера прибора
SRVC     .                          :Сервисная компания
COMP     .                   :Оператор месторожения
FLD      .                1:Название месторождения
CLST     .                                1:Номер куста
WELL     .                       1:Номер скважины
OPRT     .                          :ФИО оператора
~CURVE INFORMATION
#    MNEM.UNIT                      API CODE:CURVE DESCRIPTION
#========.==================================:=========================================
DEPT     .M                                 :DEPT
SPEE     .M/H                               :Скорость, м/час - 12.326 м.
IPRS     .МПа                               :Давление внутритрубное - 19.116 м.
RGR      .имп/мин                           :Счет интегрального ГК, имп/мин - 14.601 м.
GR       .мкР/ч                             :Естественная гамма-активность, мкР/ч - 14.601 м.
GR_AVG   .мкР/ч                             :Естественная гамма-активность, мкР/ч - 14.601 м.
RNTN     .имп/мин                           :Счет по каналу малого зонда ННКт, имп./мин. - 11.506 м.
RFTN     .имп/мин                           :Счет по каналу большого зонда ННКт,  имп./мин. - 11.506 м.
NTNL     .у.е.                              :Малый зонд ННКт, у.е. - 11.506 м.
FTNL     .у.е.                              :Большой зонд ННКт, у.е. - 11.506 м.
TRNP     .%                                 :Кажущиеся пористость по ННКТ KNNA+KNNB*A+KNNC*A*A, где A=NTNL/FTNL., % - 11.506 м.
RSDL     .имп/мин                           :Счёт, ближний зонд ГГКП, имп/мин - 10.766 м.
RLDL     .имп/мин                           :Счёт, дальний зонд ГГКП, имп/мин - 10.766 м.
RHOB     .г/см3                             :Плотность, г/см3 - 10.766 м.
RHOB_POST.g/cm3                             :Плотность, г/см3 - 10.766 м.
RAD1     .мм                                :Радиус 1 профилемера, мм - 10.283 м.
RAD2     .мм                                :Радиус 2 профилемера, мм - 10.283 м.
RAD3     .мм                                :Радиус 3 профилемера, мм - 10.283 м.
CALI     .мм                                :Диаметр скважины, мм - 10.283 м.
PHL      .град                              :Разность фаз по зонду И 0.35 И 1.05 Г L=1.4м 0.88МГц, град - 8.154 м.
ROPL     .Омм                               :Кажущееся сопротивление зонда И 0.35 И 1.05 Г, L=1.4м 0.88МГц, Омм - 8.154 м.
PHH      .град                              :Разность фаз по зонду И 0.175 И 0.525 Г,  L=0.7м 3.505МГц, град - 8.504 м.
ROPH     .Омм                               :Кажущееся сопротивление зонда И 0.175 И 0.525 Г, L=0.7м 3.505МГц, Омм - 8.504 м.
PHLD     .град                              :Разность фаз по зонду И 0.175 И 0.875 Г, L=1.05м 0.88МГц, град - 8.504 м.
ROPLD    .Омм                               :Кажущееся сопротивление зонда И 0.175 И 0.875 Г, L=1.05м 0.88МГц, Омм - 8.504 м.
PHHD     .град                              :Разность фаз по зонду И 0.35 И 0.7 Г, L=1.05м 3.505МГц, град - 8.154 м.
ROPHD    .Омм                               :Кажущееся сопротивление зонда И 0.35 И 0.7 Г, L=1.05м 3.505МГц, Омм - 8.154 м.
PHLE     .град                              :Разность фаз по зонду И 0.525 И 0.875 Г, L=1.4м 0.88МГц, град - 8.154 м.
ROPLE    .Омм                               :Кажущееся сопротивление зонда И 0.525 И 0.875 Г, L=1.4м 0.88МГц, Омм - 8.154 м.
PHHE     .град                              :Разность фаз по зонду И 0.525 И 0.525 Г, L=1.05м 3.505МГц, град - 8.154 м.
ROPHE    .Омм                               :Кажущееся сопротивление зонда И 0.525 И 0.525 Г, L=1.05м 3.505МГц, Омм - 8.154 м.
AL       .                                  :Отношение амплитуд, зонд И 0.35 И 1.05 Г, L=1.4м 0.88МГц, отношение амплитуд - 8.154 м.
AH       .                                  :Отношение амплитуд, зонд И 0.175 И 0.525 Г, L=0.7м 3.505МГц, отношение амплитуд - 8.504 м.
ALD      .                                  :Отношение амплитуд, зонд И 0.175 И 0.875 Г,  L=1.05м 0.88МГц, отношение амплитуд - 8.504 м.
AHD      .                                  :Отношение амплитуд, зонд И 0.35 И 0.7 Г, L=1.05м 3.505МГц, отношение амплитуд - 8.154 м.
ALE      .                                  :Отношение амплитуд, зонд И 0.525 И 0.875 Г, L=1.4м 0.88МГц, отношение амплитуд - 8.154 м.
AHE      .                                  :Отношение амплитуд, зонд И 0.525 И 0.525 Г, L=1.05м 3.505МГц, отношение амплитуд - 8.154 м.
RGR_VIKPB.имп/мин                           :Счет интегрального ГК, имп/мин - 9.049 м.
GR_VIKPB .мкР/ч                             :Естественная гамма-активность, мкР/ч - 9.049 м.
GR_AVG_VIKPB.мкР/ч                             :Естественная гамма-активность, мкР/ч - 9.049 м.
OPRS     .МПа                               :Давление затрубное - 8.337 м.
~PARAMETER INFORMATION BLOCK
#    MNEM.UNIT                      API CODE:CURVE DESCRIPTION
#========.==================================:=========================================

~OTHER INFORMATION


~A           SPEE       IPRS        RGR         GR     GR_AVG         RNTN       RFTN       NTNL       FTNL       TRNP          RSDL         RLDL       RHOB  RHOB_POST       RAD1    RAD2    RAD3       CALI        PHL        ROPL        PHH       ROPH       PHLD      ROPLD       PHHD       ROPHD       PHLE      ROPLE       PHHE       ROPHE         AL         AH        ALD        AHD        ALE        AHE  RGR_VIKPB   GR_VIKPB _AVG_VIKPB       OPRS
# ...
3283.4   36.00000   40.06000 2592.00000   10.48000   11.67500  96480.00000 1485.00000    2.56925    6.70725   32.77500 1716228.00000 247020.00000    2.39000    2.39045   70.12500    0.00    0.00  145.42500    2.52667    47.99183    3.90500   28.73275    1.19250   43.04725    7.40333    38.36733    3.55833   47.22567   10.85833    36.36733    0.97717    1.01075    1.01075    0.96783    0.98733    0.97733 1300.00000    8.00000    7.25000   34.07767
3283.6   45.00000   40.07500 2657.14286   10.75714   11.28750  94300.00000 1340.00000    2.51100    6.05233   35.16667 1740220.00000 242100.00000    2.41333    2.41575   65.10000    0.00    0.00  135.70000    2.25333    54.95100    2.85250   48.05575    0.85750   68.28600    6.54333    44.93067    3.24667   52.77167    9.85000    41.16833    0.97833    1.01600    1.01050    0.97067    0.98733    0.98400 1300.00000    8.00000    8.13333   34.06350
3283.8   40.00000   38.48400 2520.00000   10.16000   11.32500  96450.00000 1380.00000    2.56850    6.23300   34.77500 1640124.00000 239808.00000    2.37800    2.37875   64.72500    0.00    0.00  132.87500    2.13167    58.89583    2.71000   45.51050    0.88250   60.94050    6.08667    49.54850    3.28167   52.06467    9.98167    40.45417    0.97817    1.01600    1.01100    0.97517    0.98817    0.98483 1596.00000    9.78000    9.81818   34.13640
3284.0   36.00000   38.65455 3150.00000   12.73333   11.47143 103320.00000 1260.00000    2.75117    5.69100   39.85000 1719600.00000 246400.00000    2.39333    2.39378   71.16000    0.00    0.00  145.76000    2.33500    52.61750    3.45333   32.49233    1.06333   48.38267    6.91750    41.71400    3.05500   56.82550    9.06000    45.85000    0.97775    1.01267    1.01067    0.97150    0.98875    0.98975 1413.33333    8.62222    9.18750   34.32767
3284.2   40.00000   38.60000 2708.57143   10.94286   10.43333  95910.00000 1365.00000    2.55425    6.16525   35.07500 1727960.00000 245600.00000    2.40000    2.39981   71.75000    0.00    0.00  140.15000    2.40000    50.91667    3.24000   35.20578    1.01778   50.89700    6.83333    42.38433    3.37667   50.27367   10.07333    39.98600    0.97800    1.01267    1.01033    0.97033    0.98833    0.98233  756.00000    4.66000    4.80000   34.22500
3284.4   45.00000   39.36667 2700.00000   10.91667   10.68571  94665.00000 1290.00000    2.52075    5.82650   36.20000 1694420.00000 260480.00000    2.34333    2.34146   71.67500    0.00    0.00  143.15000    2.35250    52.15600    3.33000   33.99350    1.01750   50.87863    6.89750    41.88675    3.41750   49.53400   10.27750    38.93475    0.97850    1.01200    1.01013    0.96925    0.98825    0.98100  795.00000    4.87500    4.95000   34.10633
3284.6   40.00000   40.07500 2535.00000   10.23750   10.50000  92320.00000 1180.00000    2.45833    5.32967   38.40000 1843068.00000 285828.00000    2.32800    2.33494   78.75000    0.00    0.00  151.15000    2.43286    50.09714    5.28400   22.48640    1.53600   35.65640    7.19429    39.59686    3.44286   49.09357   10.44000    38.15614    0.97814    1.00800    1.00960    0.96757    0.98829    0.97871  885.00000    5.45000    5.16667   34.11413
3284.8   51.42857   39.68889 2520.00000   10.20000   10.73333  86871.42857 1165.71429    2.31314    5.26514   37.42857 1761756.00000 259092.00000    2.37200    2.37443   70.34000    0.00    0.00  140.52000    2.52250    47.96825    1.88667  140.35783    0.65167  120.48717    7.43375    37.91450    3.53000   47.60913   10.77125    36.62938    0.97788    1.01283    1.01067    0.96588    0.98825    0.97663  660.00000    4.07500    4.47500   34.29817
3285.0    0.87449   39.44000 2664.00000   10.76000   10.58000  89475.00000 1245.00000    2.38250    5.62325   36.32500 1692708.00000 248856.00000    2.37200    2.37468   75.85000    0.00    0.00  127.02500    1.87667    75.92183    2.49667   48.78667    0.84667   63.68600    5.05000    83.50700    3.40333   50.10050   10.17500    39.98350    0.97800    1.01100    1.00967    0.97017    0.98800    0.97733  735.00000    4.60000    4.22500   34.42017
3285.2    0.43992   39.70000 2730.00000   11.03750   10.67778  90045.00000 1290.00000    2.39800    5.82650   34.95000 1781130.00000 285570.00000    2.30750    2.31018   70.63333    0.00    0.00  140.46667    2.10833    60.31217    3.86000   29.60575    1.16250   45.12975    5.84833    54.06517    2.71000   67.90300    7.45500    62.91550    0.97767    1.00975    1.00975    0.96733    0.98833    0.97917  450.00000    2.85000    3.40000   34.41600
3285.4   60.00000   40.43333 2660.00000   10.76667   10.61667  92535.00000 1365.00000    2.46425    6.16525   33.15000 1748880.00000 263560.00000    2.35333    2.35625   70.75000    0.00    0.00  141.35000    1.96500    64.53050    0.96333  339.41100    0.46667  146.79600    5.25000    59.64300    2.82500   62.36200    7.80500    55.29100    0.97900    1.01667    1.01067    0.97150    0.98850    0.98050  612.00000    3.84000    3.92000   34.38925
3285.6   40.00000   40.11250 2797.50000   11.30000   11.37143  95060.00000 1460.00000    2.53133    6.59433   32.96667 1718160.00000 256932.00000    2.36000    2.36202   64.40000    0.00    0.00  133.40000    1.61000    82.95725    2.23750   56.34925    0.77000   70.47550    3.88250    92.66375    2.78750   63.47575    7.74250    55.93500    0.97925    1.01225    1.01050    0.97875    0.98850    0.98775  760.00000    4.56667    4.53333   34.29050
3285.8   32.72727   39.53333 2680.00000   10.85000   11.04286  96620.00000 1400.00000    2.57300    6.32333   34.90000 1837680.00000 264330.00000    2.39000    2.39093   70.23333    0.00    0.00  137.60000    2.01250    62.93775    2.37800   57.88280    0.78800   72.18080    5.32000    58.91275    2.54250   70.93025    6.69250    67.69475    0.97775    1.01360    1.01000    0.96850    0.98875    0.98375  740.00000    4.56667    4.06667   34.50267
3286.0   32.72727   39.55000 2760.00000   11.16667   10.90000  97200.00000 1290.00000    2.58850    5.82650   36.50000 1701300.00000 234870.00000    2.41750    2.42148   70.92500    0.00    0.00  136.27500    1.94333    65.36467    2.12000   61.84700    0.74500   75.56300    4.98333    63.67067    2.67333   66.62600    7.10000    62.32600    0.97867    1.01200    1.01050    0.97267    0.98867    0.98367  516.00000    3.14000    3.47500   34.37880
3286.2   32.72727   39.90000 2510.76923   10.14872   10.04737  95720.00000 1340.00000    2.54900    6.05233   34.96667 1584510.00000 237990.00000    2.36000    2.35875   64.28000    0.00    0.00  130.72000    2.34800    54.82620    4.34250   26.00625    1.30250   39.55250    6.61200    49.21700    3.12600   55.83160    9.01600    47.26920    0.97760    1.00625    1.01050    0.96880    0.98780    0.98120  740.00000    4.53333    3.86667   34.35400
3286.4   30.00000   40.25000 2391.42857    9.65714    9.58750  92160.00000 1320.00000    2.45420    5.96200   35.90000 1765260.00000 273540.00000    2.33500    2.33554   68.83333    0.00    0.00  132.91667    2.38800    52.27860    2.44750   68.61850    0.82750   75.11575    6.71400    45.60480    3.36600   50.53360    9.94400    40.70540    0.97820    1.01175    1.01075    0.96800    0.98780    0.97580  528.00000    3.24000    3.68333   34.44733
3286.6   32.72727   40.20000 2360.00000    9.55000    9.55000  95652.00000 1380.00000    2.54700    6.23300   34.48000 1721190.00000 254700.00000    2.36500    2.36982   69.32500    0.00    0.00  141.10000    1.95000    65.39950    2.65000   48.74567    0.89667   61.89733    5.02000    64.11250    3.42500   49.39800   10.08000    39.92900    0.97900    1.01500    1.01033    0.97550    0.98700    0.98000  650.00000    3.91667    3.91667   34.36025
3286.8   27.69231   40.44000 2460.00000    9.94000    9.34000  96920.00000 1390.00000    2.58050    6.27817   35.33333 1621420.00000 236480.00000    2.37667    2.38061   64.06667    0.00    0.00  136.06667    1.96667    65.46367    1.82500  143.28625    0.71250   97.12250    5.05000    64.99167    2.61000   70.13433    6.81333    68.92133    0.97833    1.01475    1.01025    0.97567    0.98867    0.98833  825.00000    5.10000    5.33333   34.49850
