# © ООО НПП ГА «Луч», 2008 - 2018/1.0.349.0.230602/CНГ УБР-1
~VERSION INFORMATION
VERS     .                               2.0:CWLS LAS VERSION
WRAP     .                                NO: One line per depth step
~WELL INFORMATION
#    MNEM.UNIT                     DATA TYPE:INFORMATION
#========.==================================:=========================================
STRT     .M                           3103.4:FIRST DEPTH IN FILE
STOP     .M                             3700:LAST DEPTH IN FILE
STEP     .M                              0.2:DEPTH INCREMENT
NULL     .                           -999.25:NULL VALUES
DATE     .                        13/10/2045:Дата каротажа
DRVD     .                   :Наименование драйвера прибора
SRVC     .                          :Сервисная компания
COMP     .                   :Оператор месторожения
FLD      .                1:Название месторождения
CLST     .                                1:Номер куста
WELL     .                       1:Номер скважины
OPRT     .                          :ФИО оператора
~CURVE INFORMATION
#    MNEM.UNIT                      API CODE:CURVE DESCRIPTION
#========.==================================:=========================================
DEPT     .M                                 :DEPT
SPEE     .M/H                               :Скорость, м/час - 12.326 м.
IPRS     .МПа                               :Давление внутритрубное - 19.116 м.
RGR      .имп/мин                           :Счет интегрального ГК, имп/мин - 14.601 м.
GR       .мкР/ч                             :Естественная гамма-активность, мкР/ч - 14.601 м.
GR_AVG   .мкР/ч                             :Естественная гамма-активность, мкР/ч - 14.601 м.
RNTN     .имп/мин                           :Счет по каналу малого зонда ННКт, имп./мин. - 11.506 м.
RFTN     .имп/мин                           :Счет по каналу большого зонда ННКт,  имп./мин. - 11.506 м.
NTNL     .у.е.                              :Малый зонд ННКт, у.е. - 11.506 м.
FTNL     .у.е.                              :Большой зонд ННКт, у.е. - 11.506 м.
TRNP     .%                                 :Кажущиеся пористость по ННКТ KNNA+KNNB*A+KNNC*A*A, где A=NTNL/FTNL., % - 11.506 м.
RSDL     .имп/мин                           :Счёт, ближний зонд ГГКП, имп/мин - 10.766 м.
RLDL     .имп/мин                           :Счёт, дальний зонд ГГКП, имп/мин - 10.766 м.
RHOB     .г/см3                             :Плотность, г/см3 - 10.766 м.
RHOB_POST.g/cm3                             :Плотность, г/см3 - 10.766 м.
RAD1     .мм                                :Радиус 1 профилемера, мм - 10.283 м.
RAD2     .мм                                :Радиус 2 профилемера, мм - 10.283 м.
RAD3     .мм                                :Радиус 3 профилемера, мм - 10.283 м.
CALI     .мм                                :Диаметр скважины, мм - 10.283 м.
PHL      .град                              :Разность фаз по зонду И 0.35 И 1.05 Г L=1.4м 0.88МГц, град - 8.154 м.
ROPL     .Омм                               :Кажущееся сопротивление зонда И 0.35 И 1.05 Г, L=1.4м 0.88МГц, Омм - 8.154 м.
PHH      .град                              :Разность фаз по зонду И 0.175 И 0.525 Г,  L=0.7м 3.505МГц, град - 8.504 м.
ROPH     .Омм                               :Кажущееся сопротивление зонда И 0.175 И 0.525 Г, L=0.7м 3.505МГц, Омм - 8.504 м.
PHLD     .град                              :Разность фаз по зонду И 0.175 И 0.875 Г, L=1.05м 0.88МГц, град - 8.504 м.
ROPLD    .Омм                               :Кажущееся сопротивление зонда И 0.175 И 0.875 Г, L=1.05м 0.88МГц, Омм - 8.504 м.
PHHD     .град                              :Разность фаз по зонду И 0.35 И 0.7 Г, L=1.05м 3.505МГц, град - 8.154 м.
ROPHD    .Омм                               :Кажущееся сопротивление зонда И 0.35 И 0.7 Г, L=1.05м 3.505МГц, Омм - 8.154 м.
PHLE     .град                              :Разность фаз по зонду И 0.525 И 0.875 Г, L=1.4м 0.88МГц, град - 8.154 м.
ROPLE    .Омм                               :Кажущееся сопротивление зонда И 0.525 И 0.875 Г, L=1.4м 0.88МГц, Омм - 8.154 м.
PHHE     .град                              :Разность фаз по зонду И 0.525 И 0.525 Г, L=1.05м 3.505МГц, град - 8.154 м.
ROPHE    .Омм                               :Кажущееся сопротивление зонда И 0.525 И 0.525 Г, L=1.05м 3.505МГц, Омм - 8.154 м.
AL       .                                  :Отношение амплитуд, зонд И 0.35 И 1.05 Г, L=1.4м 0.88МГц, отношение амплитуд - 8.154 м.
AH       .                                  :Отношение амплитуд, зонд И 0.175 И 0.525 Г, L=0.7м 3.505МГц, отношение амплитуд - 8.504 м.
ALD      .                                  :Отношение амплитуд, зонд И 0.175 И 0.875 Г,  L=1.05м 0.88МГц, отношение амплитуд - 8.504 м.
AHD      .                                  :Отношение амплитуд, зонд И 0.35 И 0.7 Г, L=1.05м 3.505МГц, отношение амплитуд - 8.154 м.
ALE      .                                  :Отношение амплитуд, зонд И 0.525 И 0.875 Г, L=1.4м 0.88МГц, отношение амплитуд - 8.154 м.
AHE      .                                  :Отношение амплитуд, зонд И 0.525 И 0.525 Г, L=1.05м 3.505МГц, отношение амплитуд - 8.154 м.
RGR_VIKPB.имп/мин                           :Счет интегрального ГК, имп/мин - 9.049 м.
GR_VIKPB .мкР/ч                             :Естественная гамма-активность, мкР/ч - 9.049 м.
GR_AVG_VIKPB.мкР/ч                             :Естественная гамма-активность, мкР/ч - 9.049 м.
OPRS     .МПа                               :Давление затрубное - 8.337 м.
~PARAMETER INFORMATION BLOCK
#    MNEM.UNIT                      API CODE:CURVE DESCRIPTION
#========.==================================:=========================================

~OTHER INFORMATION


~A           SPEE       IPRS        RGR         GR     GR_AVG         RNTN       RFTN       NTNL       FTNL       TRNP          RSDL         RLDL       RHOB  RHOB_POST       RAD1    RAD2    RAD3       CALI        PHL        ROPL        PHH       ROPH       PHLD      ROPLD       PHHD       ROPHD       PHLE      ROPLE       PHHE       ROPHE         AL         AH        ALD        AHD        ALE        AHE  RGR_VIKPB   GR_VIKPB _AVG_VIKPB       OPRS
# ...
3614.6    3.33333   42.16667 1489.41176    6.03529    6.22941 107252.72727 1134.54545    2.85582    5.12436   45.27273 1804055.00000 274615.00000    2.34667    2.34879   62.92857    0.00    0.00  124.70000    1.44333    92.41089    1.84143   69.73286    0.52429  107.39457    3.20778   110.47033    1.89556   99.60989    4.80889   100.15856    0.98044    1.01043    1.00557    0.97300    0.98600    0.98189  343.63636    2.14545    2.10000   36.62864
3614.8    3.52941   42.50000 1775.00000    7.17500    6.50000 108146.66667 1100.00000    2.88000    4.96833   47.28889 1809190.90909 281694.54545    2.32818    2.33197   67.94615    0.00    0.00  134.69231    1.78182    73.09573    2.92900   43.67470    0.79600   72.41650    4.66455    71.10482    2.26273   81.72936    6.29364    73.52700    0.98000    1.00920    1.00620    0.97209    0.98545    0.98055  300.00000    1.87273    1.96364   36.66888
3615.0   36.00000   42.76000 1790.00000    7.24444    6.95556 103473.33333 1020.00000    2.75533    4.60700   48.50000 1809180.00000 260837.14286    2.38643    2.38920   63.04375    0.00    0.00  128.32500    1.21500   118.52800    0.63556   58.36150    0.17556  109.13075    2.53375   173.34075    1.75125  111.31050    4.51500   112.17225    0.98050    1.01333    1.00633    0.97550    0.98638    0.98438  330.00000    2.01667    2.07500   36.73488
3615.2   17.14286   42.28000 1604.00000    6.48000    6.61875 103597.50000 1110.00000    2.75863    5.01350   45.73750 1649498.18182 244712.72727    2.36545    2.36793   56.18750    0.00    0.00  121.70000    0.63222   244.32811    1.31154  284.69800    0.41000  193.57769    0.14556  1382.02300    1.53667  126.12178    3.62556   138.65833    0.98056    1.01062    1.00562    0.97678    0.98611    0.98444  346.19469    2.13009    2.12544   36.49480
3615.4   14.40000   42.06000 1518.46154    6.14615    6.35833 103230.00000 1057.80000    2.74887    4.77773   47.50000 1863980.00000 286686.66667    2.33889    2.34110   65.15455    0.00    0.00  126.45455    1.49900    96.53130    2.68250   48.02608    0.76250   75.48008    3.46200   132.32400    1.52600  136.77320    3.38400   189.29060    0.98050    1.01008    1.00517    0.97140    0.98540    0.98430  380.00000    2.33333    2.10000   36.59333
3615.6   18.00000   42.02000 1671.42857    6.75000    6.17333 102810.00000 1155.00000    2.73750    5.21675   43.47500 1959313.33333 287993.33333    2.37111    2.37483   60.79333    0.00    0.00  123.87333    1.51818    88.70527    1.88875   65.85557    0.53250 1475.31888    3.42727   109.90664    1.98364   94.82327    5.02909    95.59455    0.97973    1.00938    1.00575    0.97345    0.98518    0.98291  352.50000    2.12500    2.16667   36.53121
3615.8   18.00000   40.28551 1440.00000    5.82500    6.42857 102390.00000 1170.00000    2.72667    5.28450   42.55000 1848588.00000 267684.00000    2.38400    2.38595   65.18000    0.00    0.00  128.01000    0.91357   162.99143    1.57850  127.38787    0.46204  160.89814    1.18857  1237.54393    1.69214  113.35350    3.94429   126.50757    0.98014    1.00922    1.00545    0.97657    0.98521    0.98543  340.00000    2.11667    2.21667   36.53025
3616.0   15.65217   40.82857 1507.50000    6.10625    6.53750 103315.71429 1135.71429    2.75114    5.12964   44.45000 1807911.92308 257216.53846    2.39615    2.39908   60.50000    0.00    0.00  122.30000    1.33931   101.38250    2.37667   51.29167    0.64000   85.75400    3.02612   121.93418    1.80060  106.92984    4.60948   110.59997    0.98070    1.00700    1.00600    0.97487    0.98600    0.98309  447.69231    2.74615    2.73333   36.46850
3616.2    1.18812   41.35000 1710.00000    6.91429    6.97857 100565.00000 1060.00000    2.67783    4.78767   45.59167 1830960.00000 258360.00000    2.40333    2.40520   65.65556    0.00    0.00  127.26667    1.27000   106.63650    2.35333   52.03111    0.60111   92.99267    3.00000   118.40300    1.89000   99.79700    5.32500    88.27650    0.97950    1.00889    1.00544    0.97250    0.98550    0.97850  420.00000    2.56250    2.63529   36.45175
3616.4   12.41379   42.16667 1728.00000    6.98000    6.98333 106755.00000  915.00000    2.84275    4.13275   55.68750 1716315.00000 241335.00000    2.40500    2.40781   50.20000    0.00    0.00  143.07778    1.15600   118.85520    1.75571   75.76900    0.46000  127.06114    2.59000   141.98900    1.78800  106.55040    4.98600    95.69860    0.98100    1.01214    1.00586    0.97680    0.98600    0.98240  525.00000    3.20000    3.10000   36.59438
3616.6    8.00000   42.54286 1575.00000    6.36667    7.02500 104460.00000 1033.33333    2.78178    4.66722   48.10000 1707094.28571 244671.42857    2.39000    2.39359   62.04000    0.00    0.00  125.35400    1.11250   124.22938    1.46143   91.78029    0.39571  150.57814    2.30750   162.17713    1.69625  112.89125    4.63250   104.34325    0.98075    1.01307    1.00536    0.97813    0.98575    0.98688  458.18182    2.85455    2.90000   36.59980
3616.8    9.47368   41.52857 1847.14286    7.48571    7.58462 101100.00000  990.00000    2.69210    4.47150   48.50000 1633508.57143 240852.85714    2.37000    2.37251   57.50000    0.00    0.00  122.15000    1.25333   108.65544    1.71733   79.19293    0.46400  126.26120    2.80111   129.51156    1.65333  116.57889    4.40556   111.95589    0.98067    1.00853    1.00560    0.97600    0.98600    0.98800  492.00000    3.00000    3.04000   36.46769
3617.0   10.58824   41.21000 1866.00000    7.57000    7.59000  84142.50000 1042.50000    2.24075    4.70863   36.76250 1712863.63636 252561.81818    2.36818    2.37248   63.21667    0.00    0.00  128.90000    1.29786   104.42336    1.66222   78.14811    0.48000  117.63233    2.82214   128.84564    1.73429  110.51414    4.50071   108.35793    0.98021    1.00978    1.00511    0.97343    0.98550    0.98421  552.00000    3.34000    3.29000   36.55123
3617.2   11.61290   41.53333 2187.27273    8.83636    8.42727 100425.60000 1125.60000    2.67412    5.08396   43.80800 1908326.66667 256560.00000    2.44000    2.44119   67.70909    0.00    0.00  130.10000    1.43077    93.34254    2.08182   60.33464    0.60727   91.57618    3.25077   107.89708    1.87769  100.64608    4.84692    99.10208    0.97977    1.01118    1.00564    0.97585    0.98500    0.98300  446.66667    2.73333    2.71111   36.59990
3617.4   10.58824   41.30000 2053.33333    8.31111    8.36667  98011.76471 1214.11765    2.60994    5.48376   40.00000 1839222.00000 257472.00000    2.41100    2.41111   69.48571    0.00    0.00  142.06429    1.35300    99.31580    1.50154   90.01331    0.42769  136.35892    2.95300   121.03300    1.85100  102.22950    4.66000   103.47440    0.98060    1.01277    1.00554    0.97850    0.98570    0.98810  500.00000    3.12222    2.98000   36.50987
3617.6   12.41379   42.18000 2081.11111    8.42037    8.47778  97281.00000 1083.00000    2.59045    4.89155   43.94500 1696160.00000 239500.00000    2.41000    2.40470   65.13333    0.00    0.00  128.16667    1.14571   120.04829    1.41818   95.22309    0.38091  152.81236    2.19357   172.97329    1.69214  113.46879    4.18286   117.91807    0.98057    1.01018    1.00573    0.97864    0.98550    0.98936  420.00000    2.67000    2.74444   36.44420
3617.8   14.40000   42.46250 2020.00000    8.16667    8.75000  97695.00000  907.50000    2.60144    4.09888   50.66250 1775448.00000 271668.00000    2.34667    2.34493   64.90000    0.00    0.00  123.88571    1.30455   106.59473    1.75556   76.42522    0.44444  137.95089    2.86727   136.74082    1.66364  116.76464    4.20091   120.96045    0.98064    1.01122    1.00578    0.97618    0.98673    0.98782  600.59406    3.69208    3.69703   36.55110
3618.0   14.40000   42.18333 2040.00000    8.25000    8.86667  95344.00000  972.00000    2.53893    4.39020   47.27333 1811333.33333 262723.33333    2.38222    2.38472   73.19091    0.00    0.00  139.40909    1.88600    68.10950    4.06222   28.14244    1.02556   53.60322    5.24400    60.46100    2.27500   80.99310    6.76200    66.74550    0.98060    1.00822    1.00522    0.97360    0.98450    0.98270  620.00000    3.86667    3.62500   36.47144
