# © ООО НПП ГА «Луч», 2008 - 2018/1.0.349.0.230602/CНГ УБР-1
~VERSION INFORMATION
VERS     .                               2.0:CWLS LAS VERSION
WRAP     .                                NO: One line per depth step
~WELL INFORMATION
#    MNEM.UNIT                     DATA TYPE:INFORMATION
#========.==================================:=========================================
STRT     .M                           3103.4:FIRST DEPTH IN FILE
STOP     .M                             3700:LAST DEPTH IN FILE
STEP     .M                              0.2:DEPTH INCREMENT
NULL     .                           -999.25:NULL VALUES
DATE     .                        13/10/2045:Дата каротажа
DRVD     .                   :Наименование драйвера прибора
SRVC     .                          :Сервисная компания
COMP     .                   :Оператор месторожения
FLD      .                1:Название месторождения
CLST     .                                1:Номер куста
WELL     .                       1:Номер скважины
OPRT     .                          :ФИО оператора
~CURVE INFORMATION
#    MNEM.UNIT                      API CODE:CURVE DESCRIPTION
#========.==================================:=========================================
DEPT     .M                                 :DEPT
SPEE     .M/H                               :Скорость, м/час - 12.326 м.
IPRS     .МПа                               :Давление внутритрубное - 19.116 м.
RGR      .имп/мин                           :Счет интегрального ГК, имп/мин - 14.601 м.
GR       .мкР/ч                             :Естественная гамма-активность, мкР/ч - 14.601 м.
GR_AVG   .мкР/ч                             :Естественная гамма-активность, мкР/ч - 14.601 м.
RNTN     .имп/мин                           :Счет по каналу малого зонда ННКт, имп./мин. - 11.506 м.
RFTN     .имп/мин                           :Счет по каналу большого зонда ННКт,  имп./мин. - 11.506 м.
NTNL     .у.е.                              :Малый зонд ННКт, у.е. - 11.506 м.
FTNL     .у.е.                              :Большой зонд ННКт, у.е. - 11.506 м.
TRNP     .%                                 :Кажущиеся пористость по ННКТ KNNA+KNNB*A+KNNC*A*A, где A=NTNL/FTNL., % - 11.506 м.
RSDL     .имп/мин                           :Счёт, ближний зонд ГГКП, имп/мин - 10.766 м.
RLDL     .имп/мин                           :Счёт, дальний зонд ГГКП, имп/мин - 10.766 м.
RHOB     .г/см3                             :Плотность, г/см3 - 10.766 м.
RHOB_POST.g/cm3                             :Плотность, г/см3 - 10.766 м.
RAD1     .мм                                :Радиус 1 профилемера, мм - 10.283 м.
RAD2     .мм                                :Радиус 2 профилемера, мм - 10.283 м.
RAD3     .мм                                :Радиус 3 профилемера, мм - 10.283 м.
CALI     .мм                                :Диаметр скважины, мм - 10.283 м.
PHL      .град                              :Разность фаз по зонду И 0.35 И 1.05 Г L=1.4м 0.88МГц, град - 8.154 м.
ROPL     .Омм                               :Кажущееся сопротивление зонда И 0.35 И 1.05 Г, L=1.4м 0.88МГц, Омм - 8.154 м.
PHH      .град                              :Разность фаз по зонду И 0.175 И 0.525 Г,  L=0.7м 3.505МГц, град - 8.504 м.
ROPH     .Омм                               :Кажущееся сопротивление зонда И 0.175 И 0.525 Г, L=0.7м 3.505МГц, Омм - 8.504 м.
PHLD     .град                              :Разность фаз по зонду И 0.175 И 0.875 Г, L=1.05м 0.88МГц, град - 8.504 м.
ROPLD    .Омм                               :Кажущееся сопротивление зонда И 0.175 И 0.875 Г, L=1.05м 0.88МГц, Омм - 8.504 м.
PHHD     .град                              :Разность фаз по зонду И 0.35 И 0.7 Г, L=1.05м 3.505МГц, град - 8.154 м.
ROPHD    .Омм                               :Кажущееся сопротивление зонда И 0.35 И 0.7 Г, L=1.05м 3.505МГц, Омм - 8.154 м.
PHLE     .град                              :Разность фаз по зонду И 0.525 И 0.875 Г, L=1.4м 0.88МГц, град - 8.154 м.
ROPLE    .Омм                               :Кажущееся сопротивление зонда И 0.525 И 0.875 Г, L=1.4м 0.88МГц, Омм - 8.154 м.
PHHE     .град                              :Разность фаз по зонду И 0.525 И 0.525 Г, L=1.05м 3.505МГц, град - 8.154 м.
ROPHE    .Омм                               :Кажущееся сопротивление зонда И 0.525 И 0.525 Г, L=1.05м 3.505МГц, Омм - 8.154 м.
AL       .                                  :Отношение амплитуд, зонд И 0.35 И 1.05 Г, L=1.4м 0.88МГц, отношение амплитуд - 8.154 м.
AH       .                                  :Отношение амплитуд, зонд И 0.175 И 0.525 Г, L=0.7м 3.505МГц, отношение амплитуд - 8.504 м.
ALD      .                                  :Отношение амплитуд, зонд И 0.175 И 0.875 Г,  L=1.05м 0.88МГц, отношение амплитуд - 8.504 м.
AHD      .                                  :Отношение амплитуд, зонд И 0.35 И 0.7 Г, L=1.05м 3.505МГц, отношение амплитуд - 8.154 м.
ALE      .                                  :Отношение амплитуд, зонд И 0.525 И 0.875 Г, L=1.4м 0.88МГц, отношение амплитуд - 8.154 м.
AHE      .                                  :Отношение амплитуд, зонд И 0.525 И 0.525 Г, L=1.05м 3.505МГц, отношение амплитуд - 8.154 м.
RGR_VIKPB.имп/мин                           :Счет интегрального ГК, имп/мин - 9.049 м.
GR_VIKPB .мкР/ч                             :Естественная гамма-активность, мкР/ч - 9.049 м.
GR_AVG_VIKPB.мкР/ч                             :Естественная гамма-активность, мкР/ч - 9.049 м.
OPRS     .МПа                               :Давление затрубное - 8.337 м.
~PARAMETER INFORMATION BLOCK
#    MNEM.UNIT                      API CODE:CURVE DESCRIPTION
#========.==================================:=========================================

~OTHER INFORMATION


~A           SPEE       IPRS        RGR         GR     GR_AVG         RNTN       RFTN       NTNL       FTNL       TRNP          RSDL         RLDL       RHOB  RHOB_POST       RAD1    RAD2    RAD3       CALI        PHL        ROPL        PHH       ROPH       PHLD      ROPLD       PHHD       ROPHD       PHLE      ROPLE       PHHE       ROPHE         AL         AH        ALD        AHD        ALE        AHE  RGR_VIKPB   GR_VIKPB _AVG_VIKPB       OPRS
# ...
3391.4   32.72727   40.23000 2460.00000    9.94286    9.80000  99660.00000 1224.00000    2.65380    5.52840   40.16000 1554450.00000 222015.00000    2.39250    2.39619   65.82857    0.00    0.00  132.28571    2.36333    51.89917    2.15250   57.99150    0.75000   71.99150    5.64667    54.51400    3.22167   53.23283    8.23833    51.69200    0.97733    1.01000    1.00725    0.96300    0.98450    0.96900  652.50000    4.04375    3.87500   35.33640
3391.6   40.00000   39.97692 2280.00000    9.22500    8.72857  96175.38462 1020.00000    2.56094    4.60700   46.50962 1559325.00000 219090.00000    2.40750    2.40839   66.93333    0.00    0.00  131.41667    2.23000    55.61900    2.38143   51.48143    0.78714   68.16643    5.15667    61.15950    3.10667   55.64867    7.76000    55.78817    0.97750    1.00786    1.00771    0.96217    0.98483    0.96983  554.00000    3.43000    3.50333   35.22920
3391.8   40.00000   39.47368 2100.00000    8.48000    8.22000  95400.00000 1035.00000    2.54025    4.67475   44.20000 1567956.00000 224544.00000    2.39200    2.39420   72.41429    0.00    0.00  138.90000    2.59800    46.75660    3.49111   35.04133    1.05111   51.35511    6.61400    45.42240    3.39200   50.40960    9.02000    46.90360    0.97700    1.00689    1.00722    0.95640    0.98480    0.96460  960.00000    6.05000    6.30000   35.24620
3392.0   30.00000   39.80000 2062.50000    8.33750    8.42500  92550.00000  975.00000    2.46463    4.40375   51.68750 1765248.00000 255480.00000    2.38400    2.38635   63.61667    0.00    0.00  130.06667    2.27400    54.37840    3.23119  229.53581    0.97214   74.58083    5.49800    56.34160    3.03400   57.33380    7.84000    55.06780    0.97820    1.00660    1.00781    0.96040    0.98520    0.96660  932.72727    5.72727    5.66667   35.25044
3392.2   30.00000   40.32727 1866.00000    7.53000    8.39000  94545.00000 1080.00000    2.51750    4.87800   42.52500 1862338.90909 264364.36364    2.39655    2.40075   65.22000    0.00    0.00  134.12000    1.91889    67.27144    5.34000   18.54100    1.54500   31.22450    4.18111    82.93800    2.97889   58.53533    7.79556    55.43478    0.97844    1.00300    1.00800    0.96278    0.98589    0.96800 1042.50000    6.35000    6.48750   35.29070
3392.4   36.00000   39.05333 2235.00000    9.03750    8.48889  98208.00000 1056.00000    2.61520    4.76960   44.72000 2068080.00000 278760.00000    2.44000    2.43926   53.62000    0.00    0.00  111.26000    2.52857    48.18405    4.40000   26.18325    1.27000   42.09575    6.54095    45.79383    3.49500   48.91076    9.82881    42.49874    0.97795    1.00450    1.00750    0.95929    0.98576    0.96474 1160.00000    7.13333    6.90000   35.15700
3392.6   30.00000   39.80000 2040.00000    8.25000    8.12000  96132.00000 1020.00000    2.56000    4.60700   46.00000 1754210.00000 266770.00000    2.34667    2.34951   69.76000    0.00    0.00  136.12000    1.86000    68.79500    2.61083  170.80808    0.80667  117.59175    4.06000    82.17400    3.38000   50.20400    9.52000    42.98000    0.97900    1.00733    1.00733    0.96400    0.98600    0.96400 1161.81818    7.16364    7.20000   35.28200
3392.8   27.69231   39.73684 1873.33333    7.56667    7.93750  91928.57143  934.28571    2.44800    4.21986   47.21429 1683990.00000 252630.00000    2.35875    2.35964   72.74038    0.00    0.00  146.52308    2.07500    61.44825    4.04143   37.22829    1.18500   61.24764    4.77500    70.40300    3.34500   50.86250    8.89000    47.14225    0.97800    1.00186    1.00550    0.96200    0.98575    0.96500  993.33333    6.10000    5.91111   35.26333
3393.0   32.72727   40.06000 1810.00000    7.33333    8.32857  91188.00000 1104.00000    2.42800    4.98640   40.10000 1779360.00000 257004.00000    2.38600    2.38785   67.60000    0.00    0.00  132.00000    2.68500    44.89083    2.86667  129.53533    0.87000  113.53000    6.98083    42.23717    3.51167   49.55300    9.61167    45.51458    0.97733    1.00733    1.00633    0.95650    0.98508    0.96492  990.00000    6.13750    6.24286   35.33800
3393.2   45.00000   40.90000 2000.00000    8.08333    8.95000  85656.00000 1044.00000    2.28080    4.71540   40.24000 1712580.00000 245040.00000    2.39000    2.39485   67.35000    0.00    0.00  129.31250    1.46643   104.69536   -0.20846   86.81450    0.13538 1601.44350    2.24071   323.89773    2.65929   67.58236    6.31643    73.40450    0.97793    1.01377    1.00715    0.96964    0.98479    0.97086  960.00000    5.88000    5.56667   35.35620
3393.4    6.20690   40.11538 2155.71429    8.71429    8.50769  90728.57143 1071.42857    2.41600    4.83929   41.55714 1590060.00000 228370.00000    2.38833    2.39205   68.40000    0.00    0.00  137.55000    1.91200    72.42680    2.39375   51.48375    0.79250   67.98775    3.87000   153.21420    2.35400   80.28760    4.92200   114.26640    0.97800    1.00775    1.00713    0.96340    0.98460    0.97340  810.00000    4.98333    5.24000   35.38093
3393.6    6.31579   39.59286 3042.22222   12.30000   11.72500  92000.00000 1060.00000    2.44983    4.78767   42.31667 1590580.00000 235720.00000    2.37000    2.36872   67.30000    0.00    0.00  133.66000    2.31800    53.11540    2.49500   48.46233    0.81167   65.86367    5.47467    56.56747    2.66000   70.49067    6.10867    92.63240    0.97707    1.00650    1.00700    0.95827    0.98400    0.96947 1032.00000    6.28000    6.24000   35.33683
3393.8   25.71429   39.76000 2531.16279   10.22558   10.17209  93090.00000 1035.00000    2.47900    4.67475   44.37500 1539972.00000 222000.00000    2.39000    2.38928   63.90000    0.00    0.00  129.62000    2.27714    54.21571    2.41000   50.45720    0.76800   70.24220    5.41714    57.27100    3.10714   55.62571    8.00571    53.56929    0.97729    1.00620    1.00640    0.95671    0.98429    0.96286 1020.00000    6.27500    6.35000   35.33100
3394.0   20.00000   40.51538 1746.66667    7.06667    7.17000  98745.00000 1065.00000    2.62925    4.81025   44.80000 1597716.00000 232680.00000    2.38000    2.38171   69.07143    0.00    0.00  134.91429    2.34400    52.41420    2.49667   48.49367    0.79000   67.88567    5.61800    54.78240    3.08800   56.06360    8.04600    53.27060    0.97720    1.00700    1.00683    0.95740    0.98420    0.96240 1017.69231    6.30577    6.28113   35.31720
3394.2   27.69231   39.85789 1665.00000    6.73750    7.27143  97663.63636  998.18182    2.60051    4.50845   47.29818 1686757.50000 244087.50000    2.38375    2.38645   65.12500    0.00    0.00  132.27500    2.30333    53.54733    2.56500   47.20150    0.84000   63.58125    5.67333    54.01000    3.07000   56.44800    8.10667    52.73700    0.97700    1.00800    1.00625    0.95900    0.98433    0.96400  960.00000    5.80000    6.90000   35.24917
3394.4   21.17647   39.76571 2320.00000    9.36667    7.83333  96420.00000 1050.00000    2.56750    4.74250   44.20000 1606476.00000 230604.00000    2.38800    2.39245   64.36000    0.00    0.00  132.26000    2.31833    53.11217    2.36000   52.50240    0.77600   70.27120    5.49000    56.37800    3.07667   56.30417    7.98000    53.79150    0.97733    1.00740    1.00720    0.96017    0.98383    0.96567 1185.00000    7.22500    7.63750   35.38880
3394.6   18.94737   40.10000 1963.63636    7.94545    8.58182  95776.36364  949.09091    2.55036    4.28673   50.26364 1689924.00000 270372.00000    2.31400    2.31176   65.12857    0.00    0.00  130.77143    2.61000    46.28960    4.42750   24.00250    1.30577   38.57865    6.72800    43.96080    3.40600   49.83700    9.26600    44.67340    0.97640    1.00260    1.00590    0.95620    0.98300    0.96260 1422.85714    8.70000    8.25714   35.41950
3394.8   21.17647   41.32500 2538.46154   10.26923    9.84167  92480.00000  970.00000    2.46267    4.38117   46.30000 1849395.00000 295185.00000    2.31250    2.31352   66.72000    0.00    0.00  140.36000    1.92891    68.53856    2.13500   73.04625    0.73750   79.12950    4.08200    91.31089    3.22491   53.58965    8.38145    51.39404    0.97673    1.00850    1.00675    0.96278    0.98282    0.96495 1220.00000    7.46667    7.72000   35.43200
